,City,Lat,Long,Max Temp,Humidity,Cloudiness,Wind Speed,Country,Date
0,Sistranda,63.7256,8.834,264.15,92,20,3.09,NO,1612498986
1,Yellowknife,62.456,-114.3525,238.15,75,1,3.09,CA,1612498236
2,Bowen,-20.0167,148.2333,299.15,78,90,5.14,AU,1612498987
3,Ribeira Grande,38.5167,-28.7,286.05,68,51,8.52,PT,1612498484
4,Carauari,-4.8828,-66.8958,297.23,96,100,0.51,BR,1612498987
5,Shymkent,42.3,69.6,277.15,65,0,3,KZ,1612498987
6,Hermanus,-34.4187,19.2345,290.37,91,8,2.93,ZA,1612498469
7,Mayumba,-3.432,10.6554,299.38,84,100,2.66,GA,1612498536
8,Hilo,19.7297,-155.09,294.15,78,75,4.63,US,1612498857
9,Castro,-24.7911,-50.0119,289.19,89,1,2.31,BR,1612498987
10,Sayanogorsk,53.0875,91.3997,267.76,92,100,2.82,RU,1612498988
11,Katsuura,35.1333,140.3,282.15,49,20,2.57,JP,1612498988
12,Rikitea,-23.1203,-134.9692,299.21,69,100,5.35,PF,1612498988
13,Mataura,-46.1927,168.8643,296.73,39,91,1.27,NZ,1612498988
14,Katangli,51.7102,143.2326,252.59,87,100,7.08,RU,1612498988
15,Illoqqortoormiut,,,,,,,,
16,Puerto Madero,14.7208,-92.4215,296.15,100,40,1.03,MX,1612498988
17,Iqaluit,63.7506,-68.5145,263.15,85,90,4.12,CA,1612498884
18,Saint George,37.1041,-113.5841,280.93,31,1,3.6,US,1612498989
19,Avarua,-21.2078,-159.775,302.15,65,97,3.09,CK,1612498989
20,Hobart,-42.8794,147.3294,297.04,78,75,7.72,AU,1612498989
21,Bambous Virieux,-20.3428,57.7575,301.48,65,40,5.14,MU,1612498456
22,Busselton,-33.65,115.3333,296.48,41,3,1.79,AU,1612498720
23,Belushya Guba,,,,,,,,
24,Tilichiki,60.4667,166.1,252.59,93,96,6.51,RU,1612498535
25,Salalah,17.0151,54.0924,294.15,73,40,2.06,OM,1612498221
26,Shentala,54.45,51.4833,274.28,100,100,6.34,RU,1612498990
27,Kurovskoye,55.5783,38.9108,264.15,86,75,7,RU,1612498990
28,Porbandar,21.6422,69.6093,293.15,64,0,2.57,IN,1612498990
29,Louisbourg,,,,,,,,
30,Hasaki,35.7333,140.8333,284.15,37,20,3.09,JP,1612498538
31,Vao,-22.6667,167.4833,299.21,88,0,6.74,NC,1612498507
32,Saskylakh,71.9167,114.0833,237.17,81,73,0.55,RU,1612498467
33,Vaini,-21.2,-175.2,302.15,84,75,4.12,TO,1612498454
34,Codrington,-38.2667,141.9667,295.15,38,26,3.53,AU,1612498500
35,Atuona,-9.8,-139.0333,299.08,74,1,5.23,PF,1612498454
36,Chara,56.9064,118.2631,251.54,81,99,0.68,RU,1612498991
37,Vanimo,-2.6741,141.3028,301.76,77,30,3.28,PG,1612498991
38,Larap,14.299,122.6504,297.7,88,99,6.64,PH,1612498991
39,Ushuaia,-54.8,-68.3,281.15,71,40,12.35,AR,1612498792
40,Namatanai,-3.6667,152.4333,302.25,72,21,1.84,PG,1612498477
41,Upernavik,72.7868,-56.1549,252.93,71,99,3.54,GL,1612498205
42,Pahrump,36.2083,-115.9839,279.82,37,0,2.27,US,1612498992
43,Kyren,51.6828,102.1408,263.31,89,99,1.85,RU,1612498496
44,Cape Town,-33.9258,18.4232,292.59,88,0,4.63,ZA,1612498460
45,Cabo San Lucas,22.8909,-109.9124,296.48,46,20,3.09,MX,1612498458
46,Punta Arenas,-53.15,-70.9167,282.15,61,40,6.17,CL,1612498992
47,Sampit,-2.5333,112.95,304.11,60,100,1.58,ID,1612498992
48,Rosarito,32.3333,-117.0333,287.15,87,20,0.7,MX,1612498973
49,Bredasdorp,-34.5322,20.0403,289.15,88,3,0.51,ZA,1612498218
50,San Cristobal,7.7669,-72.225,293.93,67,79,0.55,VE,1612498993
51,Kumylzhenskaya,49.8809,42.5898,279.26,92,100,1.34,RU,1612498811
52,Puerto Ayora,-0.7393,-90.3518,298.15,95,12,0.89,EC,1612498993
53,Butaritari,3.0707,172.7902,300.28,83,97,6.16,KI,1612498462
54,Saleaula,,,,,,,,
55,Praia,14.9215,-23.5087,293.15,77,75,6.69,CV,1612498994
56,Sao Filipe,14.8961,-24.4956,295.21,74,100,4.92,CV,1612498261
57,Lebu,-37.6167,-73.65,288.79,80,0,1.73,CL,1612498222
58,Cidreira,-30.1811,-50.2056,293.36,76,1,7.25,BR,1612498282
59,Progreso,21.2833,-89.6667,294.26,73,1,5.14,MX,1612498994
60,Tuktoyaktuk,69.4541,-133.0374,238.15,68,40,5.14,CA,1612498462
61,Baker,30.5882,-91.1682,292.04,77,90,4.12,US,1612498994
62,Morant Bay,17.8815,-76.4093,298.15,78,75,2.57,JM,1612498539
63,Mahebourg,-20.4081,57.7,301.15,65,40,5.14,MU,1612498460
64,Dzhusaly,,,,,,,,
65,Synya,65.3718,58.0387,254.97,91,100,2.68,RU,1612498526
66,Grand River South East,,,,,,,,
67,Alotau,,,,,,,,
68,Igrim,63.1906,64.4162,257.51,94,100,2.51,RU,1612498995
69,Tasiilaq,65.6145,-37.6368,268.15,80,40,2.06,GL,1612498261
70,Pacific Grove,36.6177,-121.9166,284.26,76,1,3.09,US,1612498255
71,Moundou,8.5667,16.0833,292.56,25,41,1.42,TD,1612498996
72,San Patricio,28.017,-97.5169,292.15,88,40,4.63,US,1612498519
73,Sentyabrskiy,,,,,,,,
74,Kurchum,48.5722,83.6542,267.72,96,100,0.62,KZ,1612498996
75,Hambantota,6.1241,81.1185,298.15,83,40,2.06,LK,1612498996
76,Shimoda,34.6667,138.95,284.15,54,40,2.57,JP,1612498996
77,Amahai,-3.3333,128.9167,301.57,73,100,1.65,ID,1612498996
78,Roma,43.2128,-75.4557,267.04,86,1,2.57,US,1612498879
79,Namibe,-15.1961,12.1522,294.1,78,83,4.09,AO,1612498492
80,Albany,42.6001,-73.9662,269.82,64,18,1.26,US,1612498461
81,Luderitz,-26.6481,15.1594,291.47,68,0,7.79,NA,1612498478
82,Hithadhoo,-0.6,73.0833,301.23,76,100,5.15,MV,1612498478
83,Brae,60.3964,-1.353,275.15,64,90,10.29,GB,1612498997
84,Kodiak,57.79,-152.4072,266.15,86,1,2.57,US,1612498171
85,Vierzon,47.2101,2.0625,282.15,93,100,1.03,FR,1612498997
86,Tidore,,,,,,,,
87,Vigo,42.2328,-8.7226,282.59,100,23,1.03,ES,1612498998
88,Sesvete,45.8311,16.1164,283.15,93,0,1.16,HR,1612498998
89,Kapaa,22.0752,-159.319,292.15,63,75,4.63,US,1612498457
90,Irbil,36.1926,44.0106,284.15,93,90,3.6,IQ,1612498998
91,Nantucket,41.2835,-70.0995,272.59,80,1,3.09,US,1612498998
92,Jhalawar,24.6,76.15,291.13,52,0,4.18,IN,1612498998
93,Victoria,22.2855,114.1577,294.26,68,41,0.89,HK,1612498168
94,San Pedro,14.35,121.0167,305.15,48,40,5.66,PH,1612498999
95,Cherskiy,68.75,161.3,251.68,76,99,3.12,RU,1612498272
96,Higuey,,,,,,,,
97,Ialibu,-6.2821,143.9935,295.15,78,75,5.14,PG,1612498999
98,Sechura,-5.5569,-80.8222,297.71,65,94,5.44,PE,1612498501
99,Chatellerault,46.8,0.5333,282.59,93,100,1.54,FR,1612498999
100,Esperance,-33.8667,121.9,291.15,52,90,6.69,AU,1612498253
101,Taolanaro,,,,,,,,
102,Kumta,14.4167,74.4,300.34,39,93,1.92,IN,1612499000
103,Khonuu,,,,,,,,
104,Kodinsk,58.6881,99.1844,259.04,92,100,3.14,RU,1612499000
105,Arraial Do Cabo,-22.9661,-42.0278,299.15,73,0,9.26,BR,1612498460
106,Bluff,-46.6,168.3333,287.8,73,87,5.12,NZ,1612498463
107,Port Elizabeth,-33.918,25.5701,291.15,94,75,1.95,ZA,1612498312
108,Klaksvik,62.2266,-6.589,274.15,69,20,5.66,FO,1612498474
109,Bethel,41.3712,-73.414,270.37,86,1,0.97,US,1612498506
110,Fort Stewart,31.8722,-81.61,284.26,62,75,2.69,US,1612499001
111,Qaanaaq,77.484,-69.3632,245.4,63,74,3.7,GL,1612498223
112,Lansing,42.7325,-84.5555,274.26,86,90,6.69,US,1612498746
113,Tautira,-17.7333,-149.15,300.93,65,31,0.89,PF,1612499001
114,Ketchikan,55.3422,-131.6461,277.15,100,75,5.66,US,1612498233
115,Khani,41.9563,42.9566,281.15,87,90,4.12,GE,1612498509
116,Havelock,34.8791,-76.9013,282.04,70,1,3.09,US,1612499002
117,Saint-Ambroise,48.5501,-71.3324,266.48,93,0,1.03,CA,1612499002
118,Carnarvon,-24.8667,113.6333,301.15,70,40,9.77,AU,1612498474
119,Nanortalik,60.1432,-45.2371,267.25,79,100,3.71,GL,1612498542
120,Georgetown,5.4112,100.3354,304.15,54,20,1.54,MY,1612498217
121,Saldanha,-33.0117,17.9442,288.15,88,0,1.54,ZA,1612498510
122,Khatanga,71.9667,102.5,238.26,78,0,3.74,RU,1612498249
123,Kudahuvadhoo,2.6708,72.8944,300.94,72,100,8.45,MV,1612498518
124,Bentiu,9.2333,29.8333,294.72,23,0,3.58,SS,1612499003
125,Ahipara,-35.1667,173.1667,293.54,70,100,3.11,NZ,1612498503
126,Nizhneyansk,,,,,,,,
127,Byron Bay,-28.65,153.6167,302.15,65,75,5.14,AU,1612498850
128,Oistins,13.0667,-59.5333,299.15,61,20,8.75,BB,1612499003
129,Linhares,-19.3911,-40.0722,295.73,91,32,2.02,BR,1612498794
130,Kaitangata,-46.2817,169.8464,287.59,73,77,6.71,NZ,1612498488
131,Cardenas,23.0375,-81.2047,289.15,77,1,3.09,CU,1612499004
132,Lermontovka,47.1453,134.3383,255.42,86,31,3.62,RU,1612499004
133,Husavik,66.0449,-17.3389,272.15,64,0,2.57,IS,1612498891
134,Krasnyy Chikoy,50.3643,108.7512,264.96,92,100,3.14,RU,1612499004
135,Spokoynaya,44.2468,41.4015,279.07,79,100,3.28,RU,1612499004
136,Faanui,-16.4833,-151.75,301.08,65,13,2.43,PF,1612498479
137,Saint-Philippe,-21.3585,55.7679,301.48,69,75,4.63,RE,1612498230
138,Saint-Augustin,51.226,-58.6502,274.64,97,100,6.43,CA,1612499004
139,Saint-Pierre,-21.3393,55.4781,302.15,65,0,2.57,RE,1612498471
140,Barrow,71.2906,-156.7887,244.15,69,90,4.63,US,1612498202
141,Soldatskiy,,,,,,,,
142,Vaitupu,,,,,,,,
143,Constitucion,-35.3333,-72.4167,288.27,90,84,1.4,CL,1612498528
144,Grand Gaube,-20.0064,57.6608,301.48,68,2,2.68,MU,1612498499
145,Ponta Delgada,37.7333,-25.6667,284.82,87,20,6.69,PT,1612499005
146,Homer,59.6425,-151.5483,269.26,93,20,1.54,US,1612498484
147,Port Hawkesbury,45.6169,-61.3485,273.15,100,90,5.66,CA,1612498529
148,New Norfolk,-42.7826,147.0587,297.59,79,100,0.89,AU,1612498466
149,Mandera,3.9366,41.867,294.69,80,0,2.01,KE,1612498816
150,Jamestown,42.097,-79.2353,275.37,86,90,6.69,US,1612498467
151,Hofn,64.2539,-15.2082,275.64,79,100,7.71,IS,1612498473
152,Tayshet,55.9342,98.0044,261.3,94,100,4.53,RU,1612499006
153,Pisco,-13.7,-76.2167,295.37,78,0,4.12,PE,1612498491
154,Pemangkat,1.1667,108.9667,297.12,93,100,6.45,ID,1612498924
155,Hovd,48.0056,91.6419,268.97,74,85,1.74,MN,1612499007
156,Bolu,40.6667,31.5833,278.45,89,87,1.7,TR,1612498769
157,Norman Wells,65.282,-126.8329,231.15,66,20,2.57,CA,1612498490
158,Ipswich,52.0592,1.1555,279.82,100,75,1.54,GB,1612499007
159,Aksarka,66.5606,67.7975,242.25,87,60,2.13,RU,1612499007
160,Geraldton,-28.7667,114.6,300.15,29,75,9.26,AU,1612498520
161,Narsaq,60.9167,-46.05,263.15,44,21,2.06,GL,1612498498
162,Mar Del Plata,-38.0023,-57.5575,290.93,77,40,3.09,AR,1612498471
163,Port Alfred,-33.5906,26.891,293.71,86,65,1.34,ZA,1612498467
164,Ozinki,51.1786,49.6769,274.89,97,100,7.73,RU,1612499008
165,Hobyo,5.3505,48.5268,297.85,77,46,7.61,SO,1612498539
166,Mpwapwa,-6.35,36.4833,290.62,92,2,0.77,TZ,1612499008
167,Colwyn Bay,53.2948,-3.7267,279.82,93,92,1.34,GB,1612499008
168,Lagoa,39.05,-27.9833,285.48,69,54,9.38,PT,1612498533
169,Fairbanks,64.8378,-147.7164,242.59,75,1,1.11,US,1612498722
170,Capao Da Canoa,-29.7456,-50.0097,293.47,71,2,6.98,BR,1612499009
171,Rapid Valley,44.0625,-103.1463,273.15,55,75,8.23,US,1612499009
172,Groa,62.65,8.7167,266.15,73,1,2.57,NO,1612499009
173,Khash,28.2211,61.2158,281.67,40,0,0.47,IR,1612498840
174,Savannah Bight,16.45,-85.85,295.93,83,0,6.86,HN,1612499009
175,Zhoucheng,35.9122,116.3117,286.71,36,99,3.67,CN,1612498923
176,Chimbote,-9.0853,-78.5783,294.18,76,96,2.57,PE,1612499009
177,Attawapiskat,,,,,,,,
178,Chuy,-33.6971,-53.4616,291.4,78,89,6.1,UY,1612498252
179,Cuamba,-14.8031,36.5372,294.01,97,70,0.7,MZ,1612498931
180,Kailua,21.4022,-157.7394,295.15,60,40,4.63,US,1612499010
181,Pevek,69.7008,170.3133,247.34,81,81,0.59,RU,1612498268
182,Boulder City,35.9786,-114.8325,281.48,31,1,3.09,US,1612499010
183,Inhambane,-23.865,35.3833,301.15,94,75,2.03,MZ,1612498465
184,Markova,48.6758,24.4138,271.5,96,90,0.9,UA,1612499010
185,Freeport,40.6576,-73.5832,275.93,69,1,2.06,US,1612498919
186,Kuminskiy,58.6667,66.5667,262.14,97,85,2.01,RU,1612498928
187,Muros,42.7762,-9.0603,280.37,94,65,3.65,ES,1612498232
188,Kachiry,53.0675,76.1036,267.35,98,99,3.18,KZ,1612498523
189,Maryanskaya,45.1044,38.6395,282.59,93,75,4,RU,1612499011
190,Nikolskoye,59.7035,30.7861,259.26,85,20,5,RU,1612498482
191,Vila Franca Do Campo,37.7167,-25.4333,284.82,87,20,6.69,PT,1612498504
192,Nuuk,64.1835,-51.7216,263.15,67,40,5.66,GL,1612499011
193,Thompson,55.7435,-97.8558,249.15,77,90,3.09,CA,1612498494
194,Voyvozh,62.892,54.9635,262.46,97,100,2.14,RU,1612499012
195,Palafrugell,41.9174,3.1631,284.26,87,90,1.03,ES,1612499012
196,Cairns,-16.9167,145.7667,305.93,66,40,3.09,AU,1612499012
197,Vardo,70.3705,31.1107,264.15,79,40,5.14,NO,1612498504
198,Bengkulu,-3.8004,102.2655,302.88,60,33,2.47,ID,1612498348
199,Iringa,-7.7667,35.7,292.15,77,40,1.49,TZ,1612499012
200,Andenes,69.3143,16.1194,274.15,86,75,8.23,NO,1612499012
201,Amderma,,,,,,,,
202,Tawkar,,,,,,,,
203,Kalmunai,7.4167,81.8167,298.73,82,96,5.06,LK,1612499013
204,Iskateley,67.6803,53.1512,246.9,87,95,6.35,RU,1612499013
205,Whitehorse,60.7161,-135.0538,248.15,77,75,2.57,CA,1612499013
206,Mount Gambier,-37.8333,140.7667,296.15,38,75,7.72,AU,1612498218
207,Dzerzhinsk,56.2389,43.4631,269.15,93,90,7,RU,1612499013
208,Caucaia,-3.7361,-38.6531,300.37,83,20,3.6,BR,1612499013
209,Guerrero Negro,27.9769,-114.0611,288.73,74,100,6.72,MX,1612498501
210,Businga,3.3333,20.8833,295.92,85,88,0.38,CD,1612499014
211,Ukiah,39.1502,-123.2078,281.48,81,1,1.25,US,1612499014
212,Belmonte,-15.8631,-38.8828,298.15,83,40,2.06,BR,1612499014
213,Fare,-16.7,-151.0167,300.87,67,0,3.49,PF,1612499014
214,East London,-33.0153,27.9116,293.15,100,90,3.41,ZA,1612498289
215,Canoinhas,-26.1772,-50.39,287.43,98,0,0.96,BR,1612499014
216,Bela Vista Do Paraiso,-22.9967,-51.1906,297.15,83,0,4.12,BR,1612499015
217,Kruisfontein,-34.0033,24.7314,289.26,95,0,1.52,ZA,1612498499
218,Beringovskiy,63.05,179.3167,254.85,92,100,3.82,RU,1612498454
219,Torbay,47.6666,-52.7314,278.15,100,90,2.57,CA,1612498474
220,Lompoc,34.6391,-120.4579,283.15,93,1,2.57,US,1612498229
221,Iberia,29.9502,-91.7507,291.15,94,40,4.12,US,1612499015
222,Okhotsk,59.3833,143.3,257.72,88,88,5.08,RU,1612498538
223,Ecoporanga,-18.3733,-40.8306,293.8,92,0,0.89,BR,1612499015
224,Te Anau,-45.4167,167.7167,297.42,39,63,1.21,NZ,1612498316
225,Chumikan,54.7183,135.315,247.66,80,23,11.62,RU,1612498496
226,Faya,18.3851,42.4509,288.15,44,0,3.6,SA,1612499016
227,Tuatapere,-46.1333,167.6833,291.23,59,81,3.14,NZ,1612498467
228,Albacete,38.8333,-2,281.15,81,0,1.03,ES,1612499016
229,Mporokoso,-9.3727,30.125,288.41,96,68,1.09,ZM,1612499016
230,Cap Malheureux,-19.9842,57.6142,302.04,68,2,2.24,MU,1612498521
231,Fortuna,40.5982,-124.1573,280.37,93,1,1.54,US,1612498518
232,Bandiagara,14.3501,-3.6104,293.15,34,0,2.06,ML,1612499017
233,Ekhabi,53.5102,142.9671,250.32,88,100,10.28,RU,1612499017
234,Bocaranga,,,,,,,,
235,Walvis Bay,-22.9575,14.5053,292.04,82,90,2.57,NA,1612498499
236,Khandbari,27.3747,87.2039,291.81,31,0,1.28,NP,1612499017
237,Hurghada,27.2574,33.8129,288.15,58,0,5.14,EG,1612499017
238,Yulara,-25.2406,130.9889,296.15,56,90,3.6,AU,1612498477
239,Egvekinot,66.3167,-179.1667,243.85,90,100,7.39,RU,1612498500
240,Sitka,57.0531,-135.33,277.15,65,40,4.63,US,1612498259
241,Tual,-5.6667,132.75,301.71,77,100,11.24,ID,1612498500
242,Moengo,5.6167,-54.4,295.85,88,38,1.26,SR,1612499018
243,Airai,-8.9266,125.4092,291.15,100,99,1.46,TL,1612498472
244,Souillac,-20.5167,57.5167,301.15,65,40,5.14,MU,1612498462
245,Touros,-5.1989,-35.4608,298.15,83,20,2.57,BR,1612498495
246,Abalak,58.1286,68.5944,263.11,97,99,2.16,RU,1612499018
247,Les Cayes,18.2,-73.75,295.84,81,0,2.97,HT,1612498509
248,North Bend,43.4065,-124.2243,280.15,93,20,2.57,US,1612498518
249,Nome,64.5011,-165.4064,261.48,72,90,7.72,US,1612498493
250,Thinadhoo,0.5333,72.9333,301.2,78,100,7.07,MV,1612499019
251,Dakar,14.6937,-17.4441,292.15,88,40,4.12,SN,1612498202
252,Cayenne,4.9333,-52.3333,299.15,83,75,3.09,GF,1612498274
253,Chokurdakh,70.6333,147.9167,246.86,86,98,9.19,RU,1612498506
254,Makakilo City,21.3469,-158.0858,295.15,56,75,2.06,US,1612498288
255,Banjar,-8.19,114.9675,303.15,74,20,3.6,ID,1612499020
256,Yaan,7.3833,8.5667,295.43,24,1,2.42,NG,1612498469
257,Chikoy,,,,,,,,
258,Liuzhou,24.3126,109.3892,298.15,31,0,4.23,CN,1612499020
259,Comodoro Rivadavia,-45.8667,-67.5,297.15,53,0,2.57,AR,1612498958
260,Juliaca,-15.5,-70.1333,279.28,88,98,0.96,PE,1612499020
261,Ilulissat,69.2167,-51.1,257.15,43,82,7.72,GL,1612498461
262,Kendari,-3.945,122.4989,303.34,70,97,0.83,ID,1612499020
263,Sabang,5.8933,95.3214,300.63,76,48,11.45,ID,1612499021
264,Paka,4.6374,103.4368,302.15,74,40,2.57,MY,1612499021
265,Muromtsevo,56.3724,75.2418,260.82,94,100,3.24,RU,1612498468
266,Kangaatsiaq,68.3065,-53.4641,257.35,83,100,7.21,GL,1612499021
267,Iquique,-20.2208,-70.1431,295.15,64,0,2.57,CL,1612499021
268,Crotone,39.0851,17.1178,285.37,35,100,1,IT,1612499021
269,Ayan,56.45,138.1667,249.25,86,100,4.89,RU,1612498515
270,Clearwater,27.9659,-82.8001,285.15,76,33,2.06,US,1612499008
271,Celestun,20.8667,-90.4,294.65,67,0,4.73,MX,1612499022
272,Mogadishu,2.0371,45.3438,298.15,69,75,7.72,SO,1612499022
273,Ponta Do Sol,32.6667,-17.1,282.59,66,92,2.24,PT,1612499022
274,Mujiayingzi,42.1167,118.7833,272.93,90,49,4.95,CN,1612498499
275,Nisia Floresta,-6.0911,-35.2086,299.15,83,20,3.6,BR,1612499022
276,Bonfim,3.0833,-59.95,298.86,76,89,5.54,BR,1612499022
277,Kimbe,-5.5502,150.1429,299.39,84,100,1.86,PG,1612499022
278,Karakol,42.4907,78.3936,270.28,81,91,0.68,KG,1612499023
279,Show Low,34.2542,-110.0298,274.15,55,1,1.53,US,1612499023
280,Bilibino,68.0546,166.4372,247.64,80,100,3.75,RU,1612498507
281,Inuvik,68.3499,-133.7218,235.15,74,100,3.6,CA,1612498469
282,Sompeta,18.9333,84.6,298.11,40,0,1.15,IN,1612499023
283,Sorland,67.667,12.6934,275.98,77,100,8.47,NO,1612498517
284,Aklavik,68.2191,-135.0107,235.15,67,90,2.06,CA,1612498263
285,Fort Nelson,58.8053,-122.7002,248.15,70,90,0.53,CA,1612498313
286,Zhigansk,66.7697,123.3711,233.95,76,0,4.86,RU,1612499024
287,Bratsk,56.1325,101.6142,260.15,78,20,4,RU,1612498880
288,Gold Coast,-28,153.4333,302.04,57,40,6.17,AU,1612498829
289,Tiksi,71.6872,128.8694,246.93,90,100,4.38,RU,1612498498
290,Tahe,52.3333,124.7333,252.85,86,100,1.92,CN,1612499024
291,Xuddur,4.1213,43.8894,292.2,92,24,6.74,SO,1612499024
292,Jimma,7.6667,36.8333,289.72,50,69,0.5,ET,1612499024
293,Tamale,9.4008,-0.8393,297.34,20,0,1.84,GH,1612499025
294,Dikson,73.5069,80.5464,247.45,88,99,4.69,RU,1612498454
295,Kahului,20.8947,-156.47,295.15,60,90,4.63,US,1612498467
296,Barentsburg,,,,,,,,
297,Seoul,37.5683,126.9778,278.15,65,75,4.12,KR,1612498715
298,Burica,,,,,,,,
299,San Quintin,30.4833,-115.95,286.83,77,51,4.22,MX,1612499025
300,Provideniya,64.3833,-173.3,252.77,88,100,12.28,RU,1612498330
301,Marawi,7.9986,124.2928,300.37,84,58,3.13,PH,1612498516
302,Petropavlovsk-Kamchatskiy,53.0452,158.6483,262.15,44,40,2,RU,1612498323
303,Bahia De Caraquez,-0.6,-80.4167,298.15,94,90,3.09,EC,1612499026
304,Hamilton,39.1834,-84.5333,277.04,93,90,6.17,US,1612498795
305,Hampton,37.0299,-76.3452,280.37,36,75,4.63,US,1612498741
306,Ampanihy,-24.7,44.75,299.71,74,5,4.2,MG,1612499026
307,Tutoia,-2.7619,-42.2744,299.71,77,25,5.39,BR,1612498522
308,Paradwip,,,,,,,,
309,Jijiang,29.2906,106.2542,286.15,71,40,3,CN,1612499027
310,Verkhnevilyuysk,63.4453,120.3167,236.86,81,41,0.96,RU,1612499027
311,Rakaia,-43.75,172.0167,291.48,58,37,1.79,NZ,1612499027
312,Altus,34.6381,-99.334,278.15,45,1,3.09,US,1612498725
313,Dawei,14.0833,98.2,306.48,29,16,0.42,MM,1612499027
314,Daru,-9.0763,143.2092,303.44,77,49,4.39,PG,1612499027
315,Kurilsk,45.2333,147.8833,263.57,89,100,10.56,RU,1612499027
316,Mwene-Ditu,-7,23.45,291.15,95,100,1.61,CD,1612499028
317,Burns Lake,54.2331,-125.7533,269.15,93,100,1.03,CA,1612499028
318,Severo-Kurilsk,50.6789,156.125,262.65,85,74,4.42,RU,1612498491
319,Puerto Del Rosario,28.5004,-13.8627,287.15,67,0,6.17,ES,1612499028
320,Galle,6.0367,80.217,299.54,78,34,1.93,LK,1612499028
321,Kharan,28.5833,65.4167,285.68,34,0,0.78,PK,1612499028
322,Imeni Stepana Razina,54.8932,44.2963,274.83,98,100,2.2,RU,1612499028
323,Komsomolskiy,40.4272,71.7189,277.15,56,61,1.03,UZ,1612499029
324,Katete,-0.7818,29.7544,291.12,82,91,1.04,UG,1612499029
325,Texarkana,33.4251,-94.0477,281.48,53,1,2.57,US,1612499029
326,Hameenlinna,60.996,24.4643,257.04,85,0,1.54,FI,1612499029
327,Vestmannaeyjar,63.4427,-20.2734,277.47,73,100,13.93,IS,1612498868
328,Kavieng,-2.5744,150.7967,301.9,71,88,0.86,PG,1612498232
329,Dingle,10.9995,122.6711,301.45,79,83,6.91,PH,1612498329
330,Korla,41.7597,86.1469,272.89,75,7,2.9,CN,1612498818
331,Theunissen,-28.411,26.7011,287.69,93,0,1.35,ZA,1612499030
332,Gayny,60.3071,54.3241,268.26,98,100,2.43,RU,1612499030
333,Mokhsogollokh,61.4681,128.9203,241.64,84,93,2.13,RU,1612499030
334,Toora-Khem,52.4675,96.11,262.95,93,100,0.43,RU,1612499030
335,Dubbo,-32.25,148.6167,304.15,37,90,9.77,AU,1612499030
336,Lata,40.1629,-8.3327,283.71,86,100,1.79,PT,1612498477
337,Nenjiang,49.1833,125.2167,257.22,91,100,2.16,CN,1612499030
338,Dong Hoi,17.4833,106.6,295.83,80,34,4.78,VN,1612499031
339,Tornio,65.8481,24.1466,254.15,84,0,0.51,FI,1612499031
340,Padang,-0.9492,100.3543,304.15,62,20,2.06,ID,1612498457
341,Pedernales,18.0384,-71.744,297.73,69,2,1.07,DO,1612499031
342,Pinega,64.7001,43.3936,254.49,91,100,5.02,RU,1612499031
343,Inderborskiy,,,,,,,,
344,Haines Junction,60.7522,-137.5108,242.15,76,24,0.51,CA,1612498476
345,Macapa,0.0389,-51.0664,298.15,100,20,1.54,BR,1612499031
346,Sarahan,31.5167,77.8,275.02,77,10,1.08,IN,1612499032
347,Lively,46.4334,-81.1498,270.15,46,90,6.17,CA,1612499032
348,Envira,-7.3,-70.2167,296.48,96,100,0.84,BR,1612499032
349,Nakamura,32.9833,132.9333,285.64,41,5,1.82,JP,1612499032
350,Visby,57.6409,18.296,269.15,80,90,5.66,SE,1612498829
351,Newport,51.5877,-2.9984,279.26,98,17,3.12,GB,1612499032
352,Zvishavane,-20.3267,30.0665,293.49,92,4,0.92,ZW,1612499032
353,Benghazi,32.1167,20.0667,288.15,75,3,1.67,LY,1612499033
354,Port Hedland,-20.3167,118.5667,303.13,67,36,5.99,AU,1612499033
355,Maua,-23.6678,-46.4614,296.48,78,75,4.63,BR,1612499031
356,Pozo Colorado,-23.4923,-58.7972,294.32,64,0,2.72,PY,1612499033
357,Kant,27.8,79.8,290.7,65,70,0.95,IN,1612499033
358,Angoche,-16.2325,39.9086,299.38,90,86,1.78,MZ,1612499034
359,Killybegs,54.6333,-8.45,277.59,91,98,2.68,IE,1612499034
360,Kamenskoye,,,,,,,,
361,Port Pirie,-33.1833,138.0167,298.15,38,75,11.83,AU,1612499034
362,Ugoofaaru,5.6667,73,300.76,70,99,3.73,MV,1612498485
363,Ust-Kuyga,70.0167,135.6,242.68,84,34,2.97,RU,1612499034
364,Nhulunbuy,-12.2333,136.7667,304.15,66,75,4.63,AU,1612498284
365,Miajadas,39.1513,-5.9084,282.59,97,100,0.89,ES,1612499035
366,Seybaplaya,19.65,-90.6667,293.15,77,1,4.93,MX,1612499035
367,Rio Grande,-32.035,-52.0986,291.48,90,77,3.13,BR,1612498536
368,Itupiranga,-5.1347,-49.3267,301.15,89,40,1.03,BR,1612498995
369,Shieli,44.1667,66.75,275.98,82,100,4.32,KZ,1612499035
370,Pangnirtung,66.1451,-65.7125,258.64,88,98,1.27,CA,1612498496
371,Juneau,58.3019,-134.4197,272.15,86,90,1.78,US,1612499035
372,Ghanzi,-21.5667,21.7833,292.72,94,95,3.54,BW,1612499035
373,Avera,33.194,-82.5271,283.15,46,1,4.12,US,1612498500
374,Mayo,38.8876,-76.5119,277.59,65,90,4.12,US,1612499036
375,Raudeberg,61.9875,5.1352,267.59,57,3,3.82,NO,1612498531
376,Viseu,40.661,-7.9097,280.37,93,98,1.34,PT,1612499036
377,Coihaique,-45.5752,-72.0662,287.15,67,0,1.72,CL,1612499015
378,Kushmurun,52.4503,64.6311,274.45,99,100,4,KZ,1612499036
379,Harboore,56.6175,8.1807,268.71,90,43,9.7,DK,1612499036
380,Perbaungan,3.5679,98.956,302.15,84,40,4.63,ID,1612499037
381,Sao Joao Da Barra,-21.6403,-41.0511,297.93,84,0,8,BR,1612498981
382,Axim,4.8699,-2.2405,299.18,89,0,3.05,GH,1612499010
383,Itiuba,-10.6917,-39.8536,295.12,79,20,1.09,BR,1612499037
384,Kavaratti,10.5669,72.642,300.48,75,69,5.42,IN,1612498482
385,Xining,36.6167,101.7667,271.57,55,0,1.44,CN,1612499037
386,Richards Bay,-28.783,32.0377,296.5,90,52,3.6,ZA,1612499037
387,Veraval,20.9,70.3667,295.71,34,0,5.05,IN,1612499037
388,Broken Hill,-31.95,141.4333,295.15,37,40,5.66,AU,1612498520
389,Ingham,42.6,-84.3833,274.26,93,90,4.63,US,1612499038
390,Hualmay,-11.0964,-77.6139,294.02,84,98,2.48,PE,1612499038
391,Leshukonskoye,64.8989,45.7622,255.77,92,100,4.62,RU,1612499038
392,Sharan,54.8167,54,273.91,94,100,4.14,RU,1612499038
393,High Rock,26.6208,-78.2833,287.15,77,0,2.06,BS,1612499038
394,Santa Ana,33.7456,-117.8678,287.15,77,1,1.49,US,1612499038
395,Conde,-7.2597,-34.9075,298.15,88,20,1.54,BR,1612498463
396,Cabedelo,-6.9811,-34.8339,298.15,88,20,1.54,BR,1612498909
397,Hajnowka,52.7433,23.5812,262.59,87,14,1.91,PL,1612498461
398,Srirampur,22.9489,88.0189,296.15,56,1,0.26,IN,1612498935
399,Wanning,18.8003,110.3967,297.04,67,9,4.26,CN,1612498469
400,Misratah,32.3754,15.0925,289.15,49,76,4.93,LY,1612498527
401,Dalvik,65.9702,-18.5286,272.15,64,0,2.57,IS,1612499039
402,Sobolevo,54.4299,31.8996,257.99,94,100,4.58,RU,1612499039
403,Novyy Nekouz,57.9029,38.07,254.76,93,67,3.11,RU,1612499039
404,Yar-Sale,66.8333,70.8333,243,87,0,2.3,RU,1612498475
405,Lieksa,63.3167,30.0167,257.66,92,100,4.6,FI,1612499040
406,Bagdarin,54.4333,113.6,256.83,83,100,0.96,RU,1612499040
407,Punto Fijo,11.6956,-70.1996,298.83,82,98,12.82,VE,1612499040
408,Marienburg,54.0359,19.0266,266.48,100,84,2.02,PL,1612499040
409,Harper,4.375,-7.7169,298.85,90,53,3.21,LR,1612498517
410,Punta Alta,-38.8759,-62.0736,293.38,46,0,5.46,AR,1612498892
411,Yerbogachen,61.2767,108.0108,246.27,87,78,0.41,RU,1612499002
412,Mehamn,71.0357,27.8492,269.15,80,40,4.12,NO,1612498462
413,Marabba,12.35,32.1833,291.12,28,0,5.69,SD,1612499041
414,Malchin,53.7333,12.7833,272.15,86,75,4.12,DE,1612499041
415,Malanje,-9.5402,16.341,290.06,99,99,1.37,AO,1612499041
416,Saint-Leu,-21.15,55.2833,302.59,65,0,2.57,RE,1612499041
417,Jalu,29.0331,21.5482,283.19,88,0,1.5,LY,1612498544
418,Ibra,22.6906,58.5334,291.29,59,0,0.94,OM,1612499041
419,Manicore,-5.8092,-61.3003,297.49,93,89,0.81,BR,1612499042
420,Riyadh,24.6877,46.7219,287.15,41,0,3.09,SA,1612498466
421,Shache,38.4167,77.2406,276.56,62,0,1.78,CN,1612499042
422,Morada Nova,-5.1067,-38.3725,298.38,82,49,2.08,BR,1612498995
423,Tucurui,-3.7661,-49.6725,296.59,93,16,2.1,BR,1612499042
424,Lorengau,-2.0226,147.2712,300.26,75,100,2.84,PG,1612498460
425,Tunduru,,,,,,,,
426,Karratha,-20.7377,116.8463,303.09,67,26,6.98,AU,1612498470
427,Azimur,,,,,,,,
428,Brandenburg,52.4167,12.55,273.71,82,100,0.45,DE,1612499043
429,Kenai,60.5544,-151.2583,265.37,79,90,4.63,US,1612498459
430,Adrar,20.5022,-10.0711,291.33,25,52,2.38,MR,1612498254
431,Ifanadiana,-21.3,47.6333,295.58,91,52,0.49,MG,1612499043
432,Umzimvubu,,,,,,,,
433,Andros Town,24.7,-77.7667,285.15,87,75,4.58,BS,1612499043
434,Presidencia Roque Saenz Pena,-26.7852,-60.4388,294.82,79,0,0.45,AR,1612499044
435,Bonthe,7.5264,-12.505,298.06,88,20,2.68,SL,1612498856
436,Arlit,18.7369,7.3853,288.9,29,64,2.82,NE,1612499030
437,Leningradskiy,69.3833,178.4167,241.48,85,100,5.08,RU,1612498251
438,Erdenet,49.0333,104.0833,265.35,88,65,5.61,MN,1612499044
439,Birao,10.2849,22.7882,294.43,22,28,5.36,CF,1612499044
440,Dongsheng,39.8161,109.9776,274.64,70,0,12.55,CN,1612498930
441,Ciudad Bolivar,8.1222,-63.5497,298.71,68,23,6.47,VE,1612499045
442,Goba,7.0167,39.9833,281.7,48,25,1.66,ET,1612499045
443,Xai-Xai,-25.0519,33.6442,298.56,86,100,1.35,MZ,1612499045
444,Saint-Joseph,-21.3667,55.6167,302.59,65,0,2.57,RE,1612499045
445,Samarai,-10.6167,150.6667,302.28,71,59,2.38,PG,1612498537
446,Biak,-0.9131,122.8766,301.37,71,100,0.79,ID,1612499045
447,Ortigueira,-24.2083,-50.9494,290.55,98,3,0.79,BR,1612499045
448,Murray Bridge,-35.1167,139.2667,289.82,86,53,2.68,AU,1612499046
449,Taltal,-25.4,-70.4833,290.72,77,34,0.64,CL,1612499046
450,Binga,-17.6203,27.3414,294.64,90,2,0.62,ZW,1612499046
451,Pangkalanbuun,-2.6833,111.6167,305.54,56,43,2.17,ID,1612499046
452,Bathsheba,13.2167,-59.5167,299.15,61,20,8.75,BB,1612498538
453,Umm Lajj,25.0213,37.2685,293.34,50,1,2.16,SA,1612498535
454,Castelo Branco,39.8222,-7.4909,282.04,93,100,0.45,PT,1612499047
455,Mikuni,36.2171,136.1519,281.15,61,75,3.09,JP,1612499047
456,Enshi,30.3,109.4833,286.59,68,87,0.15,CN,1612499047
457,Bereda,43.2686,-7.5406,280.37,100,68,0.45,ES,1612499047
458,Weston,26.1004,-80.3998,289.26,82,1,1.26,US,1612498873
459,Labutta,,,,,,,,
460,Clyde River,70.4692,-68.5914,243.15,76,75,8.75,CA,1612498459
461,Bonavista,48.6499,-53.1147,274.26,100,97,1.54,CA,1612498954
462,Gwadar,25.1216,62.3254,293.15,25,0,3.99,PK,1612499048
463,Yukhnov,54.7444,35.2297,258.69,93,100,4.78,RU,1612499048
464,Berlevag,70.8578,29.0864,269.15,80,40,4.12,NO,1612498479
465,San Ignacio,17.1561,-89.0714,293.15,94,0,1.26,BZ,1612499048
466,Kismayo,-0.3582,42.5454,297.85,83,6,5.01,SO,1612499048
467,Vaitape,-16.5167,-151.75,301.09,64,12,2.48,PF,1612499048
468,Flinders,-34.5833,150.8552,302.04,68,18,3.13,AU,1612499049
469,Gat,31.61,34.7642,286.48,100,100,1.69,IL,1612498500
470,Acapulco,16.8634,-99.8901,297.33,78,2,1.78,MX,1612499049
471,Rudarpur,26.4394,83.6144,292.81,54,27,2.38,IN,1612499049
472,Tacuati,-23.45,-56.5833,294.29,79,5,1.91,PY,1612499049
473,Tucupita,9.0622,-62.051,294.6,96,41,1.48,VE,1612499049
474,Tura,25.5198,90.2201,297.78,38,0,0.46,IN,1612498257
475,Dudinka,69.4058,86.1778,237.78,85,100,0.8,RU,1612499049
476,Labuhan,-6.8844,112.2051,301.48,80,87,8.57,ID,1612498478
477,Wanaka,-44.7,169.15,297.45,40,69,1.68,NZ,1612499050
478,Xingyi,24.1877,102.817,290.9,45,9,3.56,CN,1612499050
479,Tangjiazhuang,39.7333,118.45,282.91,38,0,6.51,CN,1612499050
480,Sao Paulo De Olivenca,-3.3783,-68.8725,296.57,98,100,1.06,BR,1612499050
481,Shevchenkove,49.6959,37.1735,274.15,86,75,9,UA,1612499050
482,Kathmandu,27.7167,85.3167,285.15,58,20,0.67,NP,1612498270
483,Tupiza,-21.45,-65.7167,286.68,65,100,2.35,BO,1612499051
484,Libenge,3.65,18.6333,294.66,77,18,1.15,CD,1612499051
485,Buala,-8.145,159.5921,302.74,71,1,3.71,SB,1612498480
486,Snasa,64.2457,12.3778,260.08,88,0,0.73,NO,1612498892
487,Los Llanos De Aridane,28.6585,-17.9182,286.15,76,75,3.09,ES,1612498485
488,Temaraia,,,,,,,,
489,Beitbridge,-22.2167,30,298.34,84,100,1.67,ZW,1612499051
490,Port Macquarie,-31.4333,152.9167,303.15,54,2,0.89,AU,1612499008
491,San Roque,36.2107,-5.3842,287.15,88,75,1.54,ES,1612499052
492,Mount Isa,-20.7333,139.5,310.15,34,75,5.14,AU,1612498482
493,Jiangkou,25.4872,119.1986,294.15,60,20,3,CN,1612499052
494,Atikokan,48.7555,-91.6216,256.75,92,100,4.73,CA,1612499052
495,Pamekasan,-7.1568,113.4746,302.27,75,84,8.24,ID,1612499052
496,Standerton,-26.9337,29.2415,289.82,92,99,0.57,ZA,1612499052
497,Yenagoa,4.9247,6.2642,298.41,91,0,0.61,NG,1612498508
498,Agirish,61.9247,63.0231,258.79,95,95,2.8,RU,1612499053
499,Praia Da Vitoria,38.7333,-27.0667,284.15,93,75,8.97,PT,1612499053
500,Ballina,-28.8667,153.5667,302.15,65,75,5.14,AU,1612498539
501,Puerto Penasco,31.3167,-113.5333,290.37,36,13,2.24,MX,1612499043
502,Carahue,-38.7,-73.1667,288.15,100,0,1.03,CL,1612498514
503,Omsukchan,62.5333,155.8,246.29,85,100,1.79,RU,1612498996
504,Orlik,52.5178,99.825,259.29,82,100,2.1,RU,1612499053
505,Davidson,36.1501,-86.7833,283.15,81,75,4.63,US,1612499054
506,Huilong,31.8111,121.655,283.15,79,100,1.34,CN,1612499054
507,Mozelos,41.8677,-8.3978,282.59,100,84,1.03,PT,1612499054
508,Dunedin,-45.8742,170.5036,286.48,70,67,11.62,NZ,1612498498
509,Kralendijk,12.15,-68.2667,300.15,78,90,8.75,BQ,1612499054
510,Cruz Alta,-28.6386,-53.6064,291.15,88,0,2.57,BR,1612499054
511,Navsari,20.9524,72.9324,295.15,46,0,3.09,IN,1612499054
512,Ramasukha,,,,,,,,
513,Zaysan,47.4667,84.8667,267.55,93,100,0.52,KZ,1612499025
514,Maceio,-9.6658,-35.7353,296.15,94,0,2.06,BR,1612499017
515,Ancud,-41.8697,-73.8203,293.15,49,0,5.14,CL,1612499055
516,Suruc,36.9761,38.425,281.15,87,75,4.63,TR,1612498829
517,Paita,-5.0892,-81.1144,296.93,74,30,4.69,PE,1612499055
518,Kidal,18.4411,1.4078,292.52,23,79,5.56,ML,1612499055
519,Waddan,29.1614,16.139,286.48,87,17,1.92,LY,1612499055
520,Broome,42.2506,-75.833,270.15,68,1,4.63,US,1612498489
521,Basyanovskiy,,,,,,,,
522,Bababe,,,,,,,,
523,Smithers,54.7804,-127.1743,269.15,93,90,0.15,CA,1612499056
524,San Luis,-33.295,-66.3356,293.1,36,0,4.38,AR,1612499056
525,Baherden,38.4362,57.4316,284.39,41,88,2.74,TM,1612499056
526,Bima,-8.4667,118.7167,302.91,72,66,3.23,ID,1612499056
527,Port Hardy,50.6996,-127.4199,281.15,100,90,2.06,CA,1612499057
528,Shu,43.5983,73.7614,273.43,90,93,2.45,KZ,1612499057
529,Silvan,38.1419,41.0081,281.15,100,75,1.54,TR,1612499057
530,Poya,-21.35,165.15,301.09,77,27,3.46,NC,1612498542
531,Kamenka,51.3223,42.7678,277.04,98,100,5.6,RU,1612498484
532,Urumqi,43.801,87.6005,264.15,92,100,1,CN,1612499057
533,Palmer,42.1584,-72.3287,269.26,85,40,1.21,US,1612498476
534,Bolshoy Tsaryn,,,,,,,,
535,Hit,33.6416,42.8251,286.62,77,98,4.21,IQ,1612499058
536,Puerto Ayacucho,5.6639,-67.6236,298.24,84,100,1.36,VE,1612499058
537,Ferkessedougou,9.6,-5.2,296.18,23,69,0.88,CI,1612499058
538,Majene,-3.5403,118.9707,303.89,60,52,2.83,ID,1612499058
539,Tsihombe,,,,,,,,
540,Sidi Bu Zayd,,,,,,,,
541,Bubaque,11.2833,-15.8333,298.06,68,75,7.38,GW,1612499058
542,Medicina,44.4787,11.6381,280.93,100,90,1.54,IT,1612499059
543,Saint-Pacome,,,,,,,,
544,Bismarck,46.8083,-100.7837,260.15,66,1,4.12,US,1612499059
545,Agaro,7.85,36.65,289.67,51,66,0.72,ET,1612499059
546,Waipawa,-41.4122,175.5153,288.15,77,90,8.23,NZ,1612498511
547,Geresk,,,,,,,,
548,Nizwa,22.9333,57.5333,291.66,43,0,0.6,OM,1612499059
549,Tir Pol,,,,,,,,
550,Gigmoto,13.7796,124.39,299.08,85,94,6.22,PH,1612499060
551,Luanda,-8.8368,13.2343,299.15,83,75,1.54,AO,1612498688
552,Guarda,40.5373,-7.2658,280.37,93,100,1.34,PT,1612498804
553,Kushima,31.4583,131.2333,287.15,47,75,2.57,JP,1612499060
554,San Agustin,20.5333,-103.4667,293.15,18,1,2.57,MX,1612499060
555,Kieta,-6.2167,155.6333,302.8,70,4,2.38,PG,1612499060
556,Ust-Uda,54.1742,103.0304,261.14,91,100,4.3,RU,1612499060
557,Longyearbyen,78.2186,15.6401,266.15,68,75,4.63,SJ,1612498507
558,Oranjestad,12.524,-70.027,299.15,89,40,7.72,AW,1612498797
559,Coahuayana,18.7333,-103.6833,294.24,89,10,1.21,MX,1612498495
560,Sobradinho,-12.8333,-39.1,295.21,94,0,0.49,BR,1612499061
561,Terrace Bay,48.7834,-87.1,273.15,93,100,1.03,CA,1612499061
562,Marcona,,,,,,,,
563,Paamiut,61.994,-49.6678,265.49,75,0,2.25,GL,1612499061
564,Prince Rupert,54.3161,-130.3201,277.15,93,75,6.69,CA,1612498543
565,Khandyga,62.6667,135.6,234.04,78,98,0.55,RU,1612499062
566,Puerto Quijarro,-17.7833,-57.7667,296.49,91,88,1.64,BO,1612499062
567,Babanusah,,,,,,,,
568,Sungairaya,0.7,108.9,298.13,88,100,5.57,ID,1612499062
569,Port Lincoln,-34.7333,135.8667,292.63,56,52,10.53,AU,1612498543
570,Mrirt,,,,,,,,
571,Mecca,21.4267,39.8261,292.94,47,79,5.62,SA,1612498490
572,Gravdal,68.1214,13.5031,274.88,84,100,7.55,NO,1612499063
573,Alice Springs,-23.7,133.8833,299.15,53,75,4.63,AU,1612499063
574,Chegutu,-18.1302,30.1407,290.71,96,32,1.53,ZW,1612499063
575,Gaoyou,32.7858,119.4278,279.94,80,100,0.9,CN,1612499063
576,Waling,27.9833,83.7667,291.19,42,93,2.75,NP,1612499063
577,Evensk,61.95,159.2333,256.03,89,100,7.24,RU,1612499063
578,Tourlaville,49.6383,-1.5664,282.04,100,75,3.6,FR,1612498810
579,Nadym,65.5333,72.5167,240.47,86,5,1.55,RU,1612499064
580,Mys Shmidta,,,,,,,,
581,Manokwari,-0.8667,134.0833,301.34,73,100,3.84,ID,1612499064
582,Carutapera,-1.195,-46.02,298.76,88,59,2.85,BR,1612498306
