,City,Lat,Long,Max Temp,Humidity,Cloudiness,Wind Speed,Country,Date
0,Illoqqortoormiut,,,,,,,,
1,Bambous Virieux,-20.3428,57.7575,302.04,65,40,5.14,MU,1612499367
2,Chifeng,42.2683,118.9636,273.58,89,47,4.93,CN,1612499367
3,Busselton,-33.65,115.3333,297.04,42,1,1.34,AU,1612499367
4,Nikolskoye,59.7035,30.7861,258.71,85,20,4,RU,1612499367
5,Vestmanna,62.1564,-7.1664,274.15,64,20,4.63,FO,1612499367
6,Turangi,-39,175.9333,300.37,33,0,3.13,NZ,1612499368
7,Mar Del Plata,-38.0023,-57.5575,290.93,77,40,3.09,AR,1612499351
8,Kapaa,22.0752,-159.319,292.15,63,75,4.63,US,1612499368
9,Cape Town,-33.9258,18.4232,292.59,88,0,4.63,ZA,1612498874
10,Rikitea,-23.1203,-134.9692,299.21,69,100,5.35,PF,1612498988
11,Albany,42.6001,-73.9662,269.82,63,27,1.19,US,1612499358
12,Victoria,22.2855,114.1577,296.15,49,20,3.6,HK,1612499102
13,Attawapiskat,,,,,,,,
14,Talnakh,69.4865,88.3972,242.3,85,99,0.52,RU,1612499369
15,Qaanaaq,77.484,-69.3632,245.4,63,74,3.7,GL,1612499369
16,Waingapu,-9.6567,120.2641,303.14,70,47,6.54,ID,1612499369
17,Rawannawi,,,,,,,,
18,Arraial Do Cabo,-22.9661,-42.0278,299.15,73,0,9.26,BR,1612499081
19,Punta Arenas,-53.15,-70.9167,282.15,61,40,6.17,CL,1612499369
20,Barrow,71.2906,-156.7887,245.15,69,90,3.6,US,1612499369
21,Vaini,-21.2,-175.2,302.15,84,75,4.12,TO,1612499370
22,Atuona,-9.8,-139.0333,299.13,74,3,4.84,PF,1612499370
23,Hasaki,35.7333,140.8333,284.15,37,20,3.09,JP,1612499370
24,Mataura,-46.1927,168.8643,297.28,39,81,0.82,NZ,1612499370
25,Chipinge,-20.1883,32.6236,291.33,94,8,1.08,ZW,1612499370
26,Belushya Guba,,,,,,,,
27,Wajima,37.4,136.9,277.15,81,75,4.12,JP,1612499370
28,Luderitz,-26.6481,15.1594,291.47,68,0,7.79,NA,1612499370
29,Luau,-10.7073,22.2247,291.37,90,86,0.59,AO,1612499371
30,Yellowknife,62.456,-114.3525,237.59,75,1,3.09,CA,1612499371
31,Charcas,23.1333,-101.1167,290.95,25,0,3.36,MX,1612499371
32,Eldikan,,,,,,,,
33,Juba,4.8517,31.5825,301.31,25,85,0.64,SS,1612499114
34,Dunedin,-45.8742,170.5036,286.48,71,67,10.28,NZ,1612499108
35,San Patricio,28.017,-97.5169,294.15,88,40,4.63,US,1612499371
36,Riyadh,24.6877,46.7219,289.15,33,0,4.12,SA,1612499351
37,Mys Shmidta,,,,,,,,
38,Layou,13.2,-61.2667,299.15,73,75,6.69,VC,1612499372
39,Kaitangata,-46.2817,169.8464,288.15,73,77,6.26,NZ,1612499372
40,Taoudenni,22.6783,-3.9836,292.28,21,15,2.78,ML,1612499372
41,Mackay,-21.15,149.2,304.15,66,40,7.2,AU,1612499100
42,Mount Pleasant,32.7941,-79.8626,284.15,93,90,4.83,US,1612499357
43,Uspenka,48.3903,39.1619,279.69,89,100,5.58,UA,1612499372
44,Kabanjahe,3.1001,98.4908,302.15,84,40,4.63,ID,1612499373
45,Sentyabrskiy,,,,,,,,
46,Diamantino,-14.4086,-56.4461,296.63,90,99,1.64,BR,1612499373
47,Lorengau,-2.0226,147.2712,300.26,75,100,2.84,PG,1612499373
48,Sedelnikovo,,,,,,,,
49,Cherskiy,68.75,161.3,251.87,76,91,2.87,RU,1612499373
50,Ribeira Grande,38.5167,-28.7,286.25,68,56,8.19,PT,1612499373
51,Sabana De Torres,7.3915,-73.4957,299.12,74,95,1.39,CO,1612499373
52,Dhidhdhoo,6.8833,73.1,300.74,69,88,2.75,MV,1612499374
53,Dwarka,22.2394,68.9678,295.05,43,0,6.37,IN,1612499374
54,Conde,-7.2597,-34.9075,298.15,88,20,1.54,BR,1612499374
55,Boyolangu,-8.1181,111.8935,302.01,72,70,1.02,ID,1612499374
56,East London,-33.0153,27.9116,294.15,94,75,1.54,ZA,1612499285
57,Samalaeulu,,,,,,,,
58,Barentsburg,,,,,,,,
59,Gravdal,68.1214,13.5031,274.88,84,100,7.55,NO,1612499063
60,Mingshui,36.7167,117.5,285.93,31,100,0.89,CN,1612499375
61,San Matias,-16.3667,-58.4,297.86,91,100,1.66,BO,1612499375
62,Cidreira,-30.1811,-50.2056,293.36,76,1,7.25,BR,1612499375
63,Saint-Augustin,51.226,-58.6502,274.64,97,100,6.43,CA,1612499004
64,Kodiak,57.79,-152.4072,266.15,86,1,2.57,US,1612499375
65,Liepaja,56.5419,21.0367,271.15,69,75,4.63,LV,1612499375
66,Hobart,-42.8794,147.3294,297.04,78,75,7.72,AU,1612499249
67,Jamestown,42.097,-79.2353,275.37,86,90,6.69,US,1612499376
68,Ambilobe,-13.2,49.05,297.92,89,92,0.82,MG,1612499376
69,Toamasina,-18.1667,49.3833,300.15,78,20,2.57,MG,1612499376
70,Khatanga,71.9667,102.5,238.26,78,0,3.74,RU,1612499376
71,Soyo,-6.1349,12.3689,299.67,85,100,3.08,AO,1612499376
72,Kungurtug,50.5994,97.5228,265.2,91,100,1.41,RU,1612499376
73,Ushuaia,-54.8,-68.3,281.15,71,40,12.35,AR,1612498792
74,Hobyo,5.3505,48.5268,297.85,77,46,7.61,SO,1612499377
75,Boa Vista,2.8197,-60.6733,298.15,88,75,3.6,BR,1612499087
76,Kushiro,42.975,144.3747,268.15,42,40,8.23,JP,1612499377
77,Vestmannaeyjar,63.4427,-20.2734,277.47,73,100,13.93,IS,1612498868
78,Zeya,53.75,127.2667,248.2,82,94,1.24,RU,1612499109
79,San Jose,37.3394,-121.895,284.15,54,1,0.89,US,1612498685
80,Katsuura,35.1333,140.3,282.15,49,20,2.57,JP,1612499377
81,Arlit,18.7369,7.3853,288.9,29,64,2.82,NE,1612499030
82,Algiers,36.7525,3.042,292.15,32,75,2.57,DZ,1612499083
83,Port Elizabeth,-33.918,25.5701,291.15,94,75,2.45,ZA,1612499378
84,Sao Francisco De Assis,-29.5503,-55.1311,289.87,89,0,2.02,BR,1612499378
85,Butaritari,3.0707,172.7902,300.28,83,97,6.16,KI,1612499378
86,Broome,42.2506,-75.833,270.15,68,1,4.63,US,1612499378
87,New Norfolk,-42.7826,147.0587,297.04,80,100,0.89,AU,1612499378
88,Taolanaro,,,,,,,,
89,Kavaratti,10.5669,72.642,300.48,75,69,5.42,IN,1612499379
90,Iskateley,67.6803,53.1512,246.9,87,95,6.35,RU,1612499013
91,Geraldton,-28.7667,114.6,301.15,30,100,9.26,AU,1612499379
92,Sitka,57.0531,-135.33,277.15,65,40,4.63,US,1612499297
93,Chokurdakh,70.6333,147.9167,246.86,86,98,9.19,RU,1612499379
94,Tiksi,71.6872,128.8694,246.93,90,100,4.38,RU,1612499379
95,Tura,25.5198,90.2201,297.78,38,0,0.46,IN,1612499379
96,Avarua,-21.2078,-159.775,302.15,65,97,3.09,CK,1612499380
97,Ambon,-3.6954,128.1814,305.15,58,40,3.09,ID,1612499380
98,Airai,-8.9266,125.4092,291.15,100,99,1.46,TL,1612499380
99,Urdzhar,,,,,,,,
100,Lingyuan,41.24,119.4011,277.23,64,0,2.69,CN,1612499380
101,Ardakan,32.31,54.0175,279.15,26,20,1.03,IR,1612499380
102,Castro,-24.7911,-50.0119,288.84,90,3,2.64,BR,1612499304
103,Umm Kaddadah,13.6017,26.6876,288.25,34,0,7.74,SD,1612499381
104,Nguiu,,,,,,,,
105,Georgetown,5.4112,100.3354,304.26,51,20,1.03,MY,1612499381
106,Lebu,-37.6167,-73.65,288.79,80,0,1.73,CL,1612499381
107,Kaman,27.65,77.2667,288.18,71,0,1.88,IN,1612499381
108,Takaka,-40.85,172.8,291.48,72,43,2.24,NZ,1612499381
109,Jardim,-21.4803,-56.1381,294.42,93,49,1.8,BR,1612499175
110,Port Alfred,-33.5906,26.891,293.71,85,53,4.23,ZA,1612499382
111,Avera,33.194,-82.5271,283.15,46,1,3.09,US,1612499382
112,Klaksvik,62.2266,-6.589,274.15,64,20,4.63,FO,1612499382
113,Srednekolymsk,67.45,153.6833,251.83,84,83,6.85,RU,1612499382
114,Bowen,-20.0167,148.2333,299.15,78,90,5.14,AU,1612498987
115,Batemans Bay,-35.7167,150.1833,297.59,86,72,7.6,AU,1612499382
116,Mayumba,-3.432,10.6554,299.38,84,100,2.66,GA,1612499383
117,Oktyabrskiy,54.4815,53.471,274.16,94,100,3.46,RU,1612499383
118,Husavik,66.0449,-17.3389,272.15,64,0,2.57,IS,1612498891
119,Hermanus,-34.4187,19.2345,290.37,92,21,3.16,ZA,1612499383
120,Severo-Kurilsk,50.6789,156.125,262.65,85,74,4.42,RU,1612499383
121,Baculin,7.4525,126.5842,302.2,66,56,3.2,PH,1612499383
122,Gat,31.61,34.7642,286.48,100,100,1.19,IL,1612499383
123,Sistranda,63.7256,8.834,264.15,92,20,3.09,NO,1612498986
124,Hami,42.8,93.45,275.28,71,0,1.3,CN,1612499384
125,Yenagoa,4.9247,6.2642,298.41,91,0,0.61,NG,1612499384
126,Tuatapere,-46.1333,167.6833,291.67,58,63,3.19,NZ,1612499384
127,Cabo San Lucas,22.8909,-109.9124,296.15,28,1,1.54,MX,1612499314
128,Bethel,41.3712,-73.414,270.37,86,1,0.97,US,1612499384
129,San Pedro,14.35,121.0167,305.15,48,40,5.66,PH,1612498999
130,Saskylakh,71.9167,114.0833,237.17,81,73,0.55,RU,1612499384
131,Torbay,47.6666,-52.7314,279.15,100,90,1.03,CA,1612499385
132,Arona,28.0996,-16.681,289.15,48,20,5.66,ES,1612499385
133,Souillac,-20.5167,57.5167,301.15,65,40,5.14,MU,1612499385
134,Haines Junction,60.7522,-137.5108,242.15,76,24,0.51,CA,1612499385
135,Nishihara,26.1842,127.7558,296.15,37,75,4.63,JP,1612499385
136,Alofi,-19.0595,-169.9187,300.15,83,100,4.12,NU,1612499385
137,Mwanza,-2.5167,32.9,295.15,83,75,2.57,TZ,1612499385
138,Puerto Ayora,-0.7393,-90.3518,298.15,95,12,0.89,EC,1612498993
139,Bartica,6.4,-58.6167,297.15,88,75,2.06,GY,1612499386
140,Mahebourg,-20.4081,57.7,301.15,65,40,5.14,MU,1612499386
141,Mundo Nuevo,18.7,-95.5,293.74,83,0,2.47,MX,1612499386
142,Chamonix-Mont-Blanc,45.9238,6.8693,279.82,97,100,2.9,FR,1612499230
143,Tessalit,20.1986,1.0114,292.46,23,85,7.22,ML,1612499386
144,Ylivieska,64.0833,24.55,262.04,89,47,2.3,FI,1612499386
145,Bengkulu,-3.8004,102.2655,302.88,60,33,2.47,ID,1612499169
146,Thompson,55.7435,-97.8558,249.15,77,90,3.09,CA,1612499108
147,Harer,9.3094,42.1258,283.44,41,41,1.46,ET,1612499387
148,Vaitupu,,,,,,,,
149,Alyangula,-13.8483,136.4192,298.15,100,75,2.06,AU,1612499387
150,Leh,34.1667,77.5833,261.17,66,100,0.09,IN,1612499387
151,Marcona,,,,,,,,
152,Port Hardy,50.6996,-127.4199,281.15,100,90,2.06,CA,1612499057
153,Gogrial,8.5332,28.1004,294.44,23,0,3.69,SS,1612499387
154,Jurado,7.1053,-77.7641,297.77,83,39,2.46,CO,1612499388
155,Sur,22.5667,59.5289,294.18,56,0,0.36,OM,1612499388
156,Komsomolskiy,40.4272,71.7189,277.15,56,61,1.03,UZ,1612499029
157,Katobu,-4.9408,122.5276,303.96,61,89,2.57,ID,1612499388
158,Maghama,,,,,,,,
159,Chippewa Falls,44.9369,-91.3929,262.15,67,90,7.72,US,1612499381
160,Hamilton,39.1834,-84.5333,277.04,93,90,6.17,US,1612498795
161,Shieli,44.1667,66.75,275.98,82,100,4.32,KZ,1612499035
162,Mangai,-4.05,19.5333,294.65,98,97,0.26,CD,1612499101
163,Twin Falls,42.3505,-114.6445,274.26,69,90,7.2,US,1612499389
164,Gilbues,-9.8317,-45.3439,296.5,85,73,0.77,BR,1612499389
165,Amderma,,,,,,,,
166,Meyungs,,,,,,,,
167,Rocha,-34.4833,-54.3333,291.5,72,100,6.54,UY,1612499389
168,Vila Do Maio,15.1333,-23.2167,293.15,77,75,6.69,CV,1612499389
169,Kokopo,-4.352,152.2633,301.28,77,53,2.44,PG,1612499390
170,Bluff,-46.6,168.3333,287.8,73,87,5.12,NZ,1612499390
171,Uppsala,60,17.75,265.37,92,90,3.6,SE,1612499390
172,Zabol,32.25,67.25,275.52,72,0,2.66,AF,1612499390
173,Vagur,61.4732,-6.8119,275.5,80,96,11.09,FO,1612499390
174,Carnarvon,-24.8667,113.6333,301.15,70,40,9.77,AU,1612499390
175,Zheleznodorozhnyy,55.7503,38.0042,264.15,86,75,7,RU,1612499390
176,Woodstock,43.1334,-80.7497,273.15,93,100,4.63,CA,1612499390
177,Guerrero Negro,27.9769,-114.0611,288.73,74,100,6.72,MX,1612499391
178,Hilo,19.7297,-155.09,294.15,78,75,4.63,US,1612499391
179,Saint-Philippe,-21.3585,55.7679,302.59,65,0,2.57,RE,1612499391
180,Antsohihy,-14.8796,47.9875,297.76,91,96,1.45,MG,1612499125
181,Bredasdorp,-34.5322,20.0403,288.15,94,3,2.06,ZA,1612499391
182,Taltal,-25.4,-70.4833,290.72,77,34,0.64,CL,1612499046
183,Sobolevo,54.4299,31.8996,257.99,94,100,4.58,RU,1612499039
184,West Des Moines,41.572,-93.7453,264.82,73,1,4.12,US,1612499301
185,Ponta Do Sol,32.6667,-17.1,282.59,66,92,2.24,PT,1612499022
186,Clyde River,70.4692,-68.5914,243.15,76,75,8.75,CA,1612499392
187,Hokitika,-42.7167,170.9667,291.62,69,31,3.15,NZ,1612499392
188,Atar,20.5169,-13.0499,287.59,68,92,2.3,MR,1612499392
189,Kazanskoye,55.6448,69.235,269.35,98,98,3.18,RU,1612499392
190,Lompoc,34.6391,-120.4579,282.59,93,1,2.57,US,1612499254
191,Mehamn,71.0357,27.8492,269.15,80,40,4.12,NO,1612499393
192,Caravelas,-17.7125,-39.2481,297.85,85,0,3.33,BR,1612499393
193,Geresk,,,,,,,,
194,Yulara,-25.2406,130.9889,296.15,56,90,3.6,AU,1612499393
195,Jaguariaiva,-24.2511,-49.7058,292.04,99,9,2.74,BR,1612499393
196,Mogadishu,2.0371,45.3438,298.15,69,75,7.72,SO,1612499022
197,Constitucion,-35.3333,-72.4167,288.47,90,89,1.38,CL,1612499393
198,Aklavik,68.2191,-135.0107,236.15,74,99,3.09,CA,1612499394
199,Magadan,59.5667,150.8,254.48,84,89,7.36,RU,1612499394
200,Iberia,29.9502,-91.7507,291.15,94,40,4.12,US,1612499015
201,Victoria Point,-27.5833,153.3,302.59,59,1,2.24,AU,1612499394
202,Frankfort,-27.2667,28.4833,287.19,94,100,1.03,ZA,1612499394
203,Bardiyah,31.7561,25.0865,287.19,86,0,5.83,LY,1612499394
204,Bom Jesus Do Galho,-19.8289,-42.3161,293.8,86,71,1.24,BR,1612499394
205,Bundaberg,-24.85,152.35,303.71,48,11,6.69,AU,1612499332
206,Lazaro Cardenas,17.9583,-102.2,296.14,81,2,1.29,MX,1612499395
207,Esperance,-33.8667,121.9,292.15,45,90,7.72,AU,1612499190
208,Hambantota,6.1241,81.1185,298.15,83,40,2.06,LK,1612498996
209,Yar-Sale,66.8333,70.8333,242.79,87,1,2.42,RU,1612499395
210,Dikson,73.5069,80.5464,247.28,88,98,4.49,RU,1612499395
211,Mende,44.6667,3.5,277.03,100,100,3.25,FR,1612499395
212,Rungata,,,,,,,,
213,Asau,46.4333,26.4,274.82,73,27,0.5,RO,1612499396
214,Port Hope,43.9408,-82.7127,273.15,86,100,9.77,US,1612499396
215,Manta,-0.95,-80.7333,298.15,94,90,3.09,EC,1612499396
216,Waw,7.7029,27.9953,294.75,23,0,3.41,SS,1612499396
217,Garowe,8.4054,48.4845,288.79,77,0,3.21,SO,1612499396
218,Aksu,41.1231,80.2644,274.64,66,52,0.17,CN,1612499396
219,Waiouru,-39.4833,175.6667,291.23,48,0,3.3,NZ,1612499396
220,San Quintin,30.4833,-115.95,286.83,77,51,4.22,MX,1612499025
221,College,64.8569,-147.8028,241.48,68,20,1.54,US,1612499397
222,Hithadhoo,-0.6,73.0833,301.23,76,100,5.15,MV,1612499397
223,Ha Giang,22.8333,104.9833,293.9,74,100,1.57,VN,1612499397
224,Tasiilaq,65.6145,-37.6368,268.15,80,40,2.06,GL,1612499397
225,Talcahuano,-36.7167,-73.1167,288.15,94,90,4.12,CL,1612499397
226,Prestea,5.4327,-2.1428,296.97,96,2,1.09,GH,1612499397
227,Zhanaozen,43.3,52.8,279.17,70,100,5.99,KZ,1612499397
228,Malumfashi,11.7853,7.6218,290.26,28,0,4.73,NG,1612499398
229,Buluang,13.3068,123.3425,299.19,82,77,3.43,PH,1612499398
230,Erdenet,49.0333,104.0833,265.35,88,65,5.61,MN,1612499044
231,Ngukurr,,,,,,,,
232,Saint George,37.1041,-113.5841,280.93,31,1,3.6,US,1612499108
233,Stephenville,32.2207,-98.2023,281.48,53,1,4.12,US,1612499225
234,Staryy Nadym,65.6118,72.6842,240.63,86,19,1.61,RU,1612499398
235,Carutapera,-1.195,-46.02,298.76,88,59,2.85,BR,1612499099
236,Anadyr,64.75,177.4833,258.15,72,75,13,RU,1612499399
237,Sambava,-14.2667,50.1667,298.2,85,70,2.78,MG,1612499399
238,Chuy,-33.6971,-53.4616,291.4,78,89,6.1,UY,1612499399
239,Misawa,40.6836,141.3597,273.15,59,75,10.8,JP,1612499399
240,Naantali,60.4674,22.0243,259.26,85,0,2.06,FI,1612499399
241,Kichera,55.9375,110.0997,259.51,88,100,0.88,RU,1612499399
242,Den Helder,52.9599,4.7593,277.15,93,90,5.66,NL,1612499399
243,Nanning,22.8167,108.3167,295.15,60,0,3,CN,1612499400
244,Lakselv,70.0513,24.9718,270.15,80,90,4.63,NO,1612499351
245,Naze,28.3667,129.4833,292.15,55,40,2.57,JP,1612499400
246,Sabalgarh,26.25,77.4,289.31,68,13,2.01,IN,1612499400
247,Ilulissat,69.2167,-51.1,257.15,43,82,7.72,GL,1612499123
248,Praia,14.9215,-23.5087,293.15,77,75,6.69,CV,1612498994
249,Flin Flon,54.7682,-101.865,251.61,90,100,3.74,CA,1612499400
250,Arman,59.7,150.1667,254.89,82,87,6.26,RU,1612499403
251,Sao Joao Da Barra,-21.6403,-41.0511,297.93,84,0,8,BR,1612498981
252,Itoman,26.1247,127.6694,296.15,46,20,4.12,JP,1612499108
253,Poum,-20.2333,164.0167,300.19,81,7,6.21,NC,1612499404
254,Rangapara,26.8167,92.65,298.53,32,0,2.98,IN,1612499404
255,Alakurtti,66.9672,30.3491,261.48,90,18,1.79,RU,1612499405
256,Amapa,1,-52,293.92,98,100,0.9,BR,1612499407
257,Rawson,-43.3002,-65.1023,302.69,17,0,7.85,AR,1612499408
258,Portland,45.5234,-122.6762,280.93,88,89,1.34,US,1612499351
259,Salalah,17.0151,54.0924,294.15,73,40,2.06,OM,1612499242
260,Kavieng,-2.5744,150.7967,301.97,70,88,1.06,PG,1612499408
261,Limbazi,57.5129,24.7194,262.59,92,87,2.2,LV,1612499409
262,Lagoa,39.05,-27.9833,285.43,69,63,8.7,PT,1612499409
263,Sao Filipe,14.8961,-24.4956,294.76,74,85,4.19,CV,1612499410
264,Sabang,5.8933,95.3214,300.63,76,48,11.45,ID,1612499021
265,Tuktoyaktuk,69.4541,-133.0374,238.15,68,40,5.14,CA,1612499410
266,Muros,42.7762,-9.0603,280.37,94,56,3.83,ES,1612499410
267,Port-Cartier,50.0334,-66.8654,272.15,93,92,2.06,CA,1612499411
268,Xichang,27.8964,102.2634,288.32,40,3,1.52,CN,1612499411
269,Palabuhanratu,,,,,,,,
270,Waipawa,-41.4122,175.5153,288.15,77,90,8.23,NZ,1612499411
271,Khor,47.8861,134.9464,255.03,85,2,3.78,RU,1612499412
272,Norman Wells,65.282,-126.8329,231.15,66,20,2.57,CA,1612499412
273,Tunduru,,,,,,,,
274,Cairns,-16.9167,145.7667,305.93,66,40,3.09,AU,1612499012
275,Raymondville,26.4815,-97.7831,293.71,88,1,3.6,US,1612499413
276,Aromashevo,56.8602,68.6375,268.76,98,98,3.27,RU,1612499413
277,Alice Springs,-23.7,133.8833,299.15,53,75,4.63,AU,1612499063
278,Kharar,30.7444,76.6478,286.34,64,12,2.12,IN,1612499297
279,Kovdor,67.5662,30.4758,257.41,95,93,2.45,RU,1612499414
280,Banikoara,11.2985,2.4386,293.84,23,0,2.63,BJ,1612499414
281,Kruisfontein,-34.0033,24.7314,289.82,96,1,1.67,ZA,1612499414
282,Camacha,33.0833,-16.3333,286.15,67,40,6.17,PT,1612499414
283,Roald,62.5833,6.1333,268.15,68,0,3.6,NO,1612499415
284,Sebinkarahisar,40.2883,38.4236,273.34,96,60,0.5,TR,1612499415
285,Malatya,38.5,38,276.15,93,75,2.57,TR,1612499415
286,Jiujiang,29.7333,115.9833,283.38,90,100,3.7,CN,1612499416
287,Dalbandin,28.8947,64.4101,286.02,34,0,2.46,PK,1612499416
288,Kitimat,54.0524,-128.6534,273.15,100,90,3.09,CA,1612499312
289,Kambia,9.1167,-12.9167,299.15,78,75,3.6,SL,1612499416
290,Ixtapa,20.7,-105.2,293.15,100,1,1.47,MX,1612499416
291,Broken Hill,-31.95,141.4333,297.15,31,40,6.69,AU,1612499417
292,Lata,40.1629,-8.3327,283.71,85,100,0.45,PT,1612499417
293,Sarishabari,24.7333,89.8333,295.39,53,0,0.77,BD,1612499417
294,Cascas,-7.4833,-78.8167,292.77,71,99,1.06,PE,1612499417
295,Camapua,-19.5314,-54.0439,296.2,93,100,2.7,BR,1612499417
296,Nioro,13.35,-15.75,293.38,39,86,2.66,GM,1612499417
297,Port Blair,11.6667,92.75,301.52,69,12,5.97,IN,1612499418
298,Vostok,46.4856,135.8833,256.96,85,12,2.26,RU,1612499418
299,Nemuro,43.3236,145.575,267.15,49,75,5.14,JP,1612499418
300,Dalry,55.6833,-4.7167,279.15,87,75,7.2,GB,1612499418
301,Pevek,69.7008,170.3133,247.36,81,85,1.47,RU,1612499419
302,Vardo,70.3705,31.1107,264.15,79,40,5.14,NO,1612499419
303,Miranorte,,,,,,,,
304,Samusu,,,,,,,,
305,Tumannyy,,,,,,,,
306,Grootfontein,-19.5667,18.1167,293.15,88,75,3.46,NA,1612499420
307,Beloha,-25.1667,45.05,303.56,57,11,4.68,MG,1612499420
308,Jauja,-11.7758,-75.4966,283.86,73,99,2.13,PE,1612499420
309,Najran,17.4924,44.1277,285.15,40,0,1.99,SA,1612499420
310,Kathu,7.9178,98.3332,301.15,65,20,3.09,TH,1612499420
311,Aktau,43.65,51.2,278.15,93,90,6,KZ,1612499421
312,Iralaya,15,-83.2333,296.38,82,5,2.86,HN,1612499421
313,Ketchikan,55.3422,-131.6461,277.15,100,75,5.66,US,1612499421
314,Kahului,20.8947,-156.47,295.15,60,90,4.63,US,1612499422
315,Phnum Penh,,,,,,,,
316,Irbil,36.1926,44.0106,284.15,93,90,3.6,IQ,1612498998
317,Natal,-5.795,-35.2094,299.15,83,20,3.6,BR,1612499422
318,Leningradskiy,69.3833,178.4167,241.48,85,100,5.08,RU,1612499351
319,Louisbourg,,,,,,,,
320,Strezhevoy,60.7333,77.5889,256.15,85,100,1,RU,1612499423
321,Sheridan,44.8333,-106.9173,272.15,80,90,8.23,US,1612499423
322,Pisco,-13.7,-76.2167,295.37,78,0,4.12,PE,1612499423
323,Ozernovskiy,51.5,156.5167,263,86,100,5.65,RU,1612499423
324,Prince Rupert,54.3161,-130.3201,277.15,93,75,6.69,CA,1612499399
325,Kalmunai,7.4167,81.8167,298.73,82,96,5.06,LK,1612499013
326,Bull Savanna,17.8868,-77.5902,294.87,86,58,2.78,JM,1612499424
327,Bilma,18.6853,12.9164,287.55,34,0,4.19,NE,1612499424
328,Tautira,-17.7333,-149.15,300.93,65,31,0.89,PF,1612499001
329,Shebalino,51.2917,85.6772,270.68,90,100,1.21,RU,1612499424
330,Kodinar,20.7903,70.7031,298.8,25,4,2.9,IN,1612499424
331,Upernavik,72.7868,-56.1549,253.15,72,99,3.38,GL,1612499424
332,Bolshegrivskoye,,,,,,,,
333,Boyuibe,-20.4167,-63.2833,290.86,79,33,2.16,BO,1612499425
334,Necochea,-38.5473,-58.7368,287.13,83,0,1.69,AR,1612499292
335,Brufut,13.3814,-16.7518,293.15,77,0,6.25,GM,1612499425
336,Namie,37.4833,141,282.59,36,42,4.89,JP,1612499425
337,Cam Ranh,11.9214,109.1591,301.15,57,20,6.17,VN,1612499425
338,Koumac,-20.5667,164.2833,300.89,75,35,3.54,NC,1612499426
339,Kamenskoye,,,,,,,,
340,Pedernales,18.0384,-71.744,297.73,69,2,1.07,DO,1612499031
341,Tambun,-6.2641,107.0712,305.37,74,40,3.6,ID,1612499426
342,Longyearbyen,78.2186,15.6401,266.15,68,75,4.63,SJ,1612499426
343,Nuuk,64.1835,-51.7216,263.15,67,40,5.66,GL,1612499011
344,Nalut,30.3333,10.85,284.55,44,0,5.47,LY,1612499427
345,Hualmay,-11.0964,-77.6139,294.02,84,98,2.48,PE,1612499038
346,Moba,33.2288,105.0179,279.73,50,0,1.69,CN,1612499427
347,Te Anau,-45.4167,167.7167,296.81,44,70,1.16,NZ,1612499427
348,Angoche,-16.2325,39.9086,299.38,90,86,1.78,MZ,1612499034
349,Howard Springs,-12.497,131.047,298.71,83,90,5.14,AU,1612499427
350,Isangel,-19.55,169.2667,304.15,62,75,1.54,VU,1612499428
351,Kultuk,51.7208,103.6956,264.57,87,100,2.71,RU,1612499428
352,Golubitskaya,45.3222,37.2822,283.15,76,63,7,RU,1612499428
353,Sedalia,38.7045,-93.2283,270.37,68,1,4.12,US,1612499401
354,Sabha,27.0377,14.4283,283.89,45,0,4.14,LY,1612499428
355,Ponta Delgada,37.7333,-25.6667,284.82,87,20,6.69,PT,1612499005
356,Kozhevnikovo,56.2589,83.9714,259.26,89,87,0.89,RU,1612499429
357,Emerald,-23.5333,148.1667,307.15,36,40,2.57,AU,1612499429
358,La Bruyere,50.3948,4.6144,280.15,87,40,2.57,BE,1612499429
359,Bathsheba,13.2167,-59.5167,299.15,61,20,8.75,BB,1612499429
360,Tzimol,16.2667,-92.2667,287.21,55,1,1.35,MX,1612499429
361,Narsaq,60.9167,-46.05,263.15,44,17,2.06,GL,1612499430
362,Verkh-Usugli,52.7,115.1667,257.72,86,93,0.35,RU,1612499430
363,Beyneu,45.3167,55.2,279.03,74,91,4.72,KZ,1612499430
364,Georgiyevka,43.0369,74.7114,276.15,60,0,1,KZ,1612499431
365,Makakilo City,21.3469,-158.0858,295.15,56,75,2.06,US,1612499431
366,Shibetsu,43.659,145.132,267.15,49,75,5.14,JP,1612499431
367,Gidam,18.9833,81.4,302.04,17,0,0.4,IN,1612499431
368,Saint-Joseph,-21.3667,55.6167,302.59,65,0,2.57,RE,1612499045
369,San Juan,-31.5375,-68.5364,298.24,23,0,3.49,AR,1612499163
370,Khormuj,,,,,,,,
371,Shingu,33.7333,135.9833,285.15,40,0,4.63,JP,1612499432
372,Ossora,59.2353,163.0719,259.75,92,100,8.45,RU,1612499432
373,Jasidih,24.5167,86.65,298.85,21,0,2.18,IN,1612499432
374,Acari,-15.4311,-74.6158,295.68,66,100,1.54,PE,1612499433
375,Adrar,20.5022,-10.0711,291.57,26,61,3.62,MR,1612499433
376,Beringovskiy,63.05,179.3167,255.01,92,100,4.23,RU,1612499433
377,Maldonado,-34.6667,-54.9167,293.15,73,40,10.29,UY,1612499434
378,Sinnamary,5.3833,-52.95,297.94,81,72,5.65,GF,1612499434
379,Iquitos,-3.7481,-73.2472,297.15,94,40,2.06,PE,1612499434
380,Sisimiut,66.9395,-53.6735,259.98,75,100,4.19,GL,1612499434
381,Umm Lajj,25.0213,37.2685,293.95,49,1,2.1,SA,1612499406
382,Vanavara,60.34,102.2797,252.67,91,88,1.64,RU,1612499435
383,Kamenka,51.3223,42.7678,277.04,98,100,5.41,RU,1612499435
384,Hay River,60.8156,-115.7999,241.15,75,69,2.57,CA,1612499169
385,Libano,4.9218,-75.0623,289.73,85,95,1.87,CO,1612499435
386,Rafsanjan,30.4067,55.9939,286.74,29,0,2.68,IR,1612499435
387,Sangar,63.9242,127.4739,235.86,81,69,2.28,RU,1612499436
388,Bad Salzungen,50.8167,10.2333,274.26,87,99,1.25,DE,1612499436
389,Glace Bay,46.1969,-59.957,274.82,100,90,3.6,CA,1612499436
390,Ancud,-41.8697,-73.8203,293.15,49,0,5.14,CL,1612499055
391,Denpasar,-8.65,115.2167,303.15,74,20,3.6,ID,1612499437
392,Surt,31.2089,16.5887,288.49,46,62,4.65,LY,1612499437
393,Jambi,-1.6,103.6167,304.48,51,80,2.55,ID,1612499437
394,Jacareacanga,-6.2222,-57.7528,296.38,95,69,0.4,BR,1612499437
395,Bairiki,1.3292,172.9752,302.15,70,20,4.63,KI,1612499437
396,Lanzhou,36.0564,103.7922,275.15,20,0,3,CN,1612499438
397,Bodden Town,19.2833,-81.25,297.59,78,20,3.09,KY,1612499438
398,Hongjiang,27.11,109.9956,283.81,88,100,1.19,CN,1612499438
399,Kendari,-3.945,122.4989,303.34,70,97,0.83,ID,1612499020
400,Finschhafen,-6.6024,147.8681,302.16,76,95,4.69,PG,1612499438
401,Galveston,29.3669,-94.9669,290.93,94,20,2.57,US,1612499438
402,Almeirim,-1.5233,-52.5817,297.11,89,6,2.22,BR,1612499439
403,Dodge City,37.7528,-100.0171,274.26,64,1,4.63,US,1612499439
404,Nizhneyansk,,,,,,,,
405,Lincoln,40.8,-96.667,269.82,79,1,4.62,US,1612499439
406,Othonoi,,,,,,,,
407,Antofagasta,-23.65,-70.4,291.15,77,20,3.09,CL,1612499439
408,Hihifo,,,,,,,,
409,Padang,-0.9492,100.3543,305.15,58,20,2.06,ID,1612499440
410,Belaya Gora,68.5333,146.4167,244.06,86,73,4.64,RU,1612499440
411,Mecca,21.4267,39.8261,293.25,46,83,5.2,SA,1612499440
412,Mezen,65.8522,44.24,253.17,90,100,5.74,RU,1612499440
413,Qaqortoq,60.7167,-46.0333,263.15,44,60,2.06,GL,1612499440
414,Rock Sound,24.9,-76.2,294.01,56,46,5.13,BS,1612499440
415,Coruripe,-10.1256,-36.1756,298.31,83,30,5.12,BR,1612499441
416,Poiana Marului,45.6,25.3,276.48,78,49,0.89,RO,1612499441
417,Lewistown,40.5992,-77.5714,272.59,80,75,1.74,US,1612499441
418,Worland,44.0169,-107.9554,269.26,74,90,2.06,US,1612499441
419,Jumla,29.2747,82.1838,277.99,68,93,3.62,NP,1612499441
420,Desaguadero,-16.5656,-69.0417,282.26,77,99,2.33,PE,1612499441
421,Kieta,-6.2167,155.6333,302.8,70,4,2.38,PG,1612499060
422,Havoysund,70.9963,24.6622,270.15,93,75,2.57,NO,1612499442
423,Whitehorse,60.7161,-135.0538,248.15,77,75,2.57,CA,1612499013
424,Chicama,-7.8447,-79.1469,295.77,67,99,1.69,PE,1612499442
425,Faanui,-16.4833,-151.75,301.13,65,10,2.65,PF,1612499442
426,Gizo,-8.103,156.8419,302.47,72,13,3.78,SB,1612499442
427,Karratha,-20.7377,116.8463,303.29,66,23,7.34,AU,1612499442
428,Bukama,-9.2,25.85,293.43,89,100,1.14,CD,1612499178
429,Kununurra,-15.7667,128.7333,304.15,79,75,3.09,AU,1612499443
430,Am Timan,11.0297,20.2827,292.2,26,63,3.42,TD,1612499443
431,Liwale,-9.7667,37.9333,295.47,95,80,0.99,TZ,1612499443
432,Marsh Harbour,26.5412,-77.0636,291.68,57,92,3.74,BS,1612499443
433,Ust-Tsilma,65.441,52.1498,254.05,92,100,3.82,RU,1612499444
434,Kemlya,54.6963,45.2424,275.1,98,100,3.01,RU,1612499444
435,Bandarbeyla,9.4942,50.8122,296.63,62,6,4.83,SO,1612499444
436,Russell,32.3502,-85.1999,285.93,58,90,3.09,US,1612499444
437,Lucapa,-8.4192,20.7447,291.32,97,81,1.25,AO,1612499444
438,Dublin,37.7021,-121.9358,283.71,65,1,1.54,US,1612499217
439,Fiche,9.8,38.7333,285.61,39,9,0.38,ET,1612499444
440,Sibolga,1.7427,98.7792,302.81,63,100,2.17,ID,1612499445
441,Tomatlan,19.9333,-105.25,291.53,79,0,0.99,MX,1612499445
442,Omboue,-1.5746,9.2618,298.52,88,89,2.33,GA,1612499445
443,Rybnaya Sloboda,55.4613,50.1409,273.15,100,90,6,RU,1612499445
444,North Bend,43.4065,-124.2243,280.15,93,20,2.57,US,1612499445
445,Hojai,26,92.8667,296.66,47,0,0.8,IN,1612499445
446,Ippy,6.2679,21.2247,295.54,28,84,2.07,CF,1612499446
447,Yangcun,39.3639,117.0603,283.15,23,0,3,CN,1612499446
448,Awbari,26.5921,12.7805,283.24,46,0,4.12,LY,1612499446
449,Caceres,39.522,-6.3748,282.04,93,100,0.45,ES,1612499446
450,Pangnirtung,66.1451,-65.7125,258.53,88,99,1.22,CA,1612499446
451,Ende,-8.8432,121.6623,302.13,74,60,0.64,ID,1612499447
452,Lambarene,-0.7001,10.2406,297.32,94,98,0.85,GA,1612499447
453,Nzega,-2.479,29.5564,287.46,89,93,1.51,RW,1612499447
454,San Ramon,37.7799,-121.978,283.15,65,1,1.54,US,1612499379
455,Chapais,49.7834,-74.8492,258.15,92,1,1.54,CA,1612499447
456,Igarka,67.4667,86.5833,236.22,82,69,1.9,RU,1612499447
457,Calbuco,-41.768,-73.1273,290.15,72,0,3.6,CL,1612499447
458,Nampula,-15.1165,39.2666,297.15,88,40,2.06,MZ,1612499448
459,Lolua,,,,,,,,
460,Fairbanks,64.8378,-147.7164,242.59,75,1,1.11,US,1612498722
461,Lisakovsk,52.5369,62.4936,274.87,99,100,4.62,KZ,1612499448
462,Sao Miguel Do Araguaia,-13.275,-50.1628,296.19,89,97,1.59,BR,1612499329
463,Concepcion,-36.827,-73.0498,288.15,94,90,4.12,CL,1612499169
464,Sao Jose Da Coroa Grande,-8.8978,-35.1478,298.36,82,11,3.87,BR,1612499449
465,Mao,39.8885,4.2658,285.15,94,90,4.12,ES,1612499449
466,Vredefort,-27.0081,27.3646,290.57,83,100,2.74,ZA,1612499449
467,Corpus Christi,27.8006,-97.3964,294.15,88,40,4.63,US,1612499449
468,Nanakuli,21.3906,-158.1547,295.15,56,75,2.06,US,1612499449
469,Henties Bay,-22.116,14.2845,292.04,84,6,0.45,NA,1612499449
470,Aljezur,37.3191,-8.8033,284.26,100,100,1.79,PT,1612499450
471,La Fria,8.2203,-72.2439,296.4,80,76,0.88,VE,1612499450
472,Verkhniy Avzyan,53.5289,57.5372,274.65,94,100,2.84,RU,1612499450
473,Bilgoraj,50.5411,22.722,272.04,85,25,0.98,PL,1612499450
474,Maceio,-9.6658,-35.7353,296.15,94,0,2.06,BR,1612499017
475,Hanko,59.8333,22.95,260.37,83,71,5.36,FI,1612499450
476,Karoi,-16.8099,29.6925,292.16,94,47,2.49,ZW,1612499451
477,Biak,-0.9131,122.8766,301.37,71,100,0.79,ID,1612499045
478,Margate,51.3813,1.3862,281.48,89,27,0.89,GB,1612499451
479,Diego De Almagro,-26.3667,-70.05,287.43,54,0,0.86,CL,1612499451
480,Saint-Leu,-21.15,55.2833,302.59,65,0,2.57,RE,1612499041
481,Kampene,-3.6,26.6667,294.36,90,47,0.98,CD,1612499451
482,Auburn,47.3073,-122.2284,282.15,87,90,8.75,US,1612499178
483,Hakkari,37.5833,44.1667,273.37,94,100,0.22,TR,1612499452
484,Eucaliptus,-17.5833,-67.5167,282.78,72,95,3.98,BO,1612499452
485,Ayan,56.45,138.1667,249.66,86,100,4.84,RU,1612499452
486,Dargaville,-35.9333,173.8833,294.61,67,99,3.65,NZ,1612499452
487,Mount Gambier,-37.8333,140.7667,296.15,38,75,7.72,AU,1612499452
488,Tual,-5.6667,132.75,301.52,78,100,11.06,ID,1612499453
489,Skibbereen,51.55,-9.2667,278.15,81,75,4.12,IE,1612499453
490,Okato,-39.2,173.8833,292.59,73,6,2.24,NZ,1612499453
491,Westport,41.1415,-73.3579,274.15,80,1,1.54,US,1612499265
492,Liverpool,53.4106,-2.9779,280.15,93,75,1.54,GB,1612499453
493,Beaverlodge,55.2166,-119.4361,252.15,77,75,2.06,CA,1612499453
494,Ngunguru,-35.6167,174.5,293.12,74,97,3.23,NZ,1612499453
495,Sumenep,-7.0167,113.8667,302.36,75,66,8.71,ID,1612499454
496,Desur,12.4333,79.4833,299.42,50,1,3.85,IN,1612499454
497,Kutoarjo,-7.7169,109.9128,304.84,58,99,3.27,ID,1612499454
498,Saleaula,,,,,,,,
499,Terrace Bay,48.7834,-87.1,273.15,93,100,1.03,CA,1612499061
500,Vila Velha,-20.3297,-40.2925,299.26,78,20,4.63,BR,1612499454
501,Rocky Mountain House,52.3668,-114.9188,265.15,93,100,0.51,CA,1612499454
502,Kemijarvi,66.7131,27.4306,261.52,95,49,3.5,FI,1612499455
503,Hohhot,40.8106,111.6522,272.15,40,0,1,CN,1612499455
504,Aleksandrov Gay,50.147,48.5704,275.57,94,58,6.71,RU,1612499455
505,Jahrom,,,,,,,,
506,Dingle,10.9995,122.6711,301.49,78,79,6.64,PH,1612499455
507,Sibiti,-3.6819,13.3499,293.79,100,100,0.61,CG,1612499455
508,Paamiut,61.994,-49.6678,265.49,75,0,2.25,GL,1612499061
509,Presidencia Roque Saenz Pena,-26.7852,-60.4388,294.82,79,0,0.45,AR,1612499044
510,Marang,5.2056,103.2059,300.15,83,40,3.6,MY,1612499456
511,Grindavik,63.8424,-22.4338,276.15,87,75,10.29,IS,1612499456
512,Sataua,,,,,,,,
513,Tapaua,,,,,,,,
514,Batsfjord,70.6345,29.7185,264.15,79,40,5.14,NO,1612499456
515,Concepcion Del Oro,24.6333,-101.4167,285.1,37,0,0.47,MX,1612499456
516,Salym,60.0625,71.4789,261.75,96,100,2.98,RU,1612499457
517,Severnyy,50.677,36.5532,273.15,86,75,11,RU,1612499457
518,Port Lincoln,-34.7333,135.8667,292.49,55,42,10.26,AU,1612499457
519,Veraval,20.9,70.3667,295.71,34,0,5.05,IN,1612499037
520,Saint Anthony,45.0205,-93.218,261.15,66,1,6.69,US,1612499457
521,Charters Towers,-20.1,146.2667,304.36,54,92,5.99,AU,1612499457
522,Sakaiminato,35.55,133.2333,285.15,47,75,7.2,JP,1612499457
523,Inuvik,68.3499,-133.7218,236.15,74,100,3.09,CA,1612499458
524,Mountain Home,43.133,-115.6912,275.15,75,90,1.54,US,1612499458
525,Codrington,-38.2667,141.9667,295.5,38,21,3.09,AU,1612499458
526,Panguna,-6.3164,155.4848,298.65,86,54,0.85,PG,1612499458
527,Half Moon Bay,37.4636,-122.4286,284.15,46,1,2.88,US,1612499458
528,Matara,5.9485,80.5353,302.66,63,14,0.28,LK,1612499458
529,Hillsboro,45.5229,-122.9898,280.37,87,75,3.09,US,1612499260
530,Ngaoundere,7.3167,13.5833,289.06,31,6,2.38,CM,1612499459
531,Galchino,,,,,,,,
532,Palatka,29.6486,-81.6376,282.59,59,78,1.52,US,1612499459
533,San Vicente,-26.6167,-54.1333,288.58,100,5,1.33,AR,1612499459
534,Neiafu,-18.65,-173.9833,300.15,94,75,3.6,TO,1612499459
535,Ridgecrest,35.6225,-117.6709,283.15,31,1,4.12,US,1612499460
536,Atasu,48.6814,71.6433,266.65,96,72,3.07,KZ,1612499460
537,Jiexiu,37.0244,111.9125,281.68,43,18,6.4,CN,1612499460
538,Kidsgrove,53.0869,-2.2378,279.82,84,90,1.86,GB,1612499460
539,Mafinga,-7.25,35.0667,293.24,90,28,0.81,TZ,1612499460
540,Provideniya,64.3833,-173.3,252.76,88,100,12.04,RU,1612499461
541,Hovd,48.0056,91.6419,268.97,74,85,1.74,MN,1612499007
542,Maturin,9.75,-63.1767,294.51,96,87,1.76,VE,1612499388
543,Korla,41.7597,86.1469,272.89,75,7,2.9,CN,1612498818
544,Karakol,42.4907,78.3936,270.28,81,91,0.68,KG,1612499023
545,Jurbarkas,55.0778,22.7664,262.2,95,0,2.57,LT,1612499461
546,Akyab,20.15,92.9,298.12,37,25,1.19,MM,1612499462
547,Axim,4.8699,-2.2405,299.18,89,0,3.05,GH,1612499010
548,Bemidji,47.4736,-94.8803,256.15,78,90,6.17,US,1612499228
549,Rio Grande,-32.035,-52.0986,291.48,90,82,1.79,BR,1612499459
550,Ust-Kamchatsk,,,,,,,,
551,Jalu,29.0331,21.5482,282.74,89,0,1.41,LY,1612499463
552,Rio Gallegos,-51.6226,-69.2181,283.15,53,0,9.26,AR,1612499463
553,Sampit,-2.5333,112.95,304.11,60,100,1.58,ID,1612498992
554,Lensk,60.7253,114.9278,249.87,85,89,0.96,RU,1612499463
555,Misratah,32.3754,15.0925,289.01,49,68,4.74,LY,1612499463
556,Sidi Ali,36.0998,0.4206,289.45,38,41,8.35,DZ,1612499464
557,Dolbeau,,,,,,,,
558,Salinopolis,-0.6136,-47.3561,299.41,85,96,4.35,BR,1612499464
559,Matagami,49.7502,-77.6328,265.15,86,20,3.6,CA,1612499464
560,Ambovombe,-25.1667,46.0833,303.33,57,16,3.18,MG,1612499464
561,Ugoofaaru,5.6667,73,300.81,70,99,3.81,MV,1612499465
562,Quatre Cocos,-20.2078,57.7625,302.04,65,40,5.14,MU,1612499465
563,San Rafael,-34.6177,-68.3301,295.05,32,0,1.76,AR,1612499418
564,Bokoro,12.3807,17.0568,291.41,26,1,6.43,TD,1612499465
565,Lerwick,60.1545,-1.1494,275.15,64,90,10.29,GB,1612499465
566,Penzance,50.1186,-5.5371,281.15,87,75,6.17,GB,1612499465
567,Morondava,-20.2833,44.2833,301.33,79,100,2.82,MG,1612499466
568,Svetlaya,46.5389,138.3297,262.71,78,58,2.63,RU,1612499466
569,Miraflores,19.2167,-98.8083,292.15,32,1,2.06,MX,1612499466
570,Inzer,54.2167,57.5556,275.4,91,100,2.07,RU,1612499466
571,Peniche,39.3558,-9.3811,283.71,89,99,1.79,PT,1612499466
572,Healdsburg,38.6105,-122.8692,280.37,76,1,1.54,US,1612499467
573,Impfondo,1.6381,18.0667,294.83,84,54,0.89,CG,1612499169
574,Gazojak,41.1875,61.4036,282.16,69,100,4.66,TM,1612499467
575,Sinop,41.7711,34.8709,280.71,82,80,2.69,TR,1612499467
576,Arkadak,51.9326,43.4978,276.6,98,100,5.58,RU,1612499467
577,Chuncheng,22.1731,111.7886,298.71,47,75,1.42,CN,1612499467
578,Solsvik,,,,,,,,
579,Mayo,38.8876,-76.5119,277.59,65,90,4.12,US,1612499036
580,Camacari,-12.6975,-38.3242,300.15,83,40,4.12,BR,1612499468
581,Chakan,18.75,73.85,298.25,29,37,4.68,IN,1612499468
582,Warqla,,,,,,,,
583,Chara,56.9064,118.2631,251.54,81,99,0.68,RU,1612498991
584,Olinda,-8.0089,-34.8553,299.15,73,40,2.06,BR,1612499468
585,Senanga,-16.1167,23.2667,292.47,96,41,2.12,ZM,1612499469
586,Evensk,61.95,159.2333,256.03,89,100,7.24,RU,1612499063
587,Terme,41.2092,36.9739,284.15,82,75,2.57,TR,1612499351
588,Analipsis,35.3167,25.5667,287.04,93,20,3.09,GR,1612499469
589,Bolungarvik,,,,,,,,
590,Emirdag,39.0197,31.15,276.71,82,0,0.81,TR,1612499469
591,Prabumulih,-3.45,104.25,303.51,62,33,2.98,ID,1612499469
592,Davidson,36.1501,-86.7833,283.15,81,75,4.63,US,1612499054
593,Mahajanga,-15.7167,46.3167,297.15,88,20,2.06,MG,1612499470
594,Galesong,-5.3166,119.3661,303.15,74,40,3.09,ID,1612499470
595,Beaupre,47.0443,-70.8953,269.15,93,17,0.51,CA,1612499470
596,Ratnagiri,16.9833,73.3,300.72,38,92,2.14,IN,1612499470
597,Namatanai,-3.6667,152.4333,301.93,74,36,1.61,PG,1612499470
598,Bilibino,68.0546,166.4372,246.1,79,100,3.88,RU,1612499470
599,The Pas,53.8251,-101.2541,253.15,77,90,4.63,CA,1612499470
600,Cabedelo,-6.9811,-34.8339,298.15,88,20,1.54,BR,1612498909
601,Zhezkazgan,47.8043,67.7144,262.15,92,90,1,KZ,1612499471
602,Mount Isa,-20.7333,139.5,309.15,34,40,7.2,AU,1612499413
603,San Cristobal,7.7669,-72.225,293.93,67,79,0.55,VE,1612498993
604,Bosaso,11.2842,49.1816,295.72,61,1,1.92,SO,1612499471
605,Sorland,67.667,12.6934,275.91,79,100,8.42,NO,1612499471
606,Deputatskiy,69.3,139.9,240.66,88,96,1.68,RU,1612499472
607,Flinders,-34.5833,150.8552,302.04,68,18,3.13,AU,1612499049
608,Nanortalik,60.1432,-45.2371,267.4,80,100,3.37,GL,1612499472
609,Aykhal,66,111.5,238.56,81,13,2.29,RU,1612499472
610,Siyabuswa,-25.1132,29.0445,295.32,77,98,0.23,ZA,1612499472
611,Labuhan,-6.8844,112.2051,301.44,81,88,9.12,ID,1612499472
612,Shaunavon,49.6501,-108.4181,264.15,86,89,12.35,CA,1612499473
613,Namibe,-15.1961,12.1522,293.8,79,18,3.73,AO,1612499473
614,Batagay,67.6333,134.6333,234.99,80,98,0.8,RU,1612499473
615,Lavrentiya,65.5833,-171,251.87,90,100,8.12,RU,1612499473
616,Mahalingpur,16.3833,75.1167,299.36,36,22,4.44,IN,1612499473
617,Galle,6.0367,80.217,299.54,78,34,1.93,LK,1612499028
618,Mandera,3.9366,41.867,294.69,80,0,2.01,KE,1612498816
619,Iqaluit,63.7506,-68.5145,263.15,85,90,4.12,CA,1612499446
620,Maues,-3.3836,-57.7186,298.11,87,100,0.64,BR,1612499474
621,Kiama,-34.6833,150.8667,302.04,68,29,3.13,AU,1612499474
622,Baruun-Urt,46.6806,113.2792,264.04,93,37,4.63,MN,1612499474
623,Concordia,-31.393,-58.0209,292.04,83,0,1.6,AR,1612499474
624,Kissamos,35.4939,23.6569,285.15,94,20,3.09,GR,1612499474
625,Jinchengjiang,,,,,,,,
626,Babstovo,48.1167,132.4833,254.7,85,90,2.46,RU,1612499475
627,Traiguen,-38.25,-72.6833,290.88,57,0,0.24,CL,1612499475
