,City,Lat,Long,Max Temp,Humidity,Cloudiness,Wind Speed,Country,Date
0,Coquimbo,-29.9533,-71.3436,289.15,88,90,3.09,CL,1612491840
1,Chlorakas,34.8042,32.4083,284.15,87,20,3.09,CY,1612492068
2,Mataura,-46.1927,168.8643,296.32,39,99,1.16,NZ,1612492069
3,Hilo,19.7297,-155.09,295.15,73,40,7.2,US,1612491930
4,Nizhneyansk,,,,,,,,
5,Phan Thiet,10.9333,108.1,299.74,59,16,2.3,VN,1612492069
6,Ushuaia,-54.8,-68.3,280.15,81,40,15.43,AR,1612491808
7,Busselton,-33.65,115.3333,292.59,39,2,2.24,AU,1612492069
8,Upernavik,72.7868,-56.1549,252.36,71,97,2.65,GL,1612491920
9,Kodinar,20.7903,70.7031,291.32,47,10,3.42,IN,1612492070
10,Marcona,,,,,,,,
11,Leningradskiy,69.3833,178.4167,240.92,85,100,5.05,RU,1612491984
12,Umzimvubu,,,,,,,,
13,Punta Arenas,-53.15,-70.9167,282.15,66,40,7.2,CL,1612492070
14,Avarua,-21.2078,-159.775,302.15,65,40,2.06,CK,1612492070
15,Jamestown,42.097,-79.2353,274.82,40,75,2.57,US,1612491916
16,Belyy Yar,53.6039,91.3903,259.15,85,100,1,RU,1612492071
17,Juneau,58.3019,-134.4197,272.59,86,75,2.15,US,1612492016
18,Georgetown,5.4112,100.3354,301.15,65,20,1.54,MY,1612491814
19,Albany,42.6001,-73.9662,270.37,81,0,1.19,US,1612491857
20,Port Alfred,-33.5906,26.891,292.04,89,48,3.93,ZA,1612492071
21,Anadyr,64.75,177.4833,258.15,78,40,14,RU,1612492071
22,Vagur,61.4732,-6.8119,275.51,80,98,11.83,FO,1612492071
23,Souillac,-20.5167,57.5167,297.15,83,20,1.03,MU,1612492071
24,Bredasdorp,-34.5322,20.0403,290.15,88,5,1.03,ZA,1612492072
25,Alofi,-19.0595,-169.9187,301.15,83,40,4.63,NU,1612492072
26,Vaini,-21.2,-175.2,300.15,89,75,2.57,TO,1612492072
27,Barrow,71.2906,-156.7887,240.15,75,75,3.6,US,1612492072
28,Belmonte,-15.8631,-38.8828,299.15,78,0,2.57,BR,1612492072
29,Cape Town,-33.9258,18.4232,292.59,88,0,5.14,ZA,1612491662
30,Zhuanghe,39.7008,122.9911,275.48,80,2,2.98,CN,1612492072
31,Belushya Guba,,,,,,,,
32,Rikitea,-23.1203,-134.9692,299.08,68,100,5.08,PF,1612491926
33,Dikson,73.5069,80.5464,250.86,91,100,4.91,RU,1612492073
34,Lyuban,52.7985,28.0048,261.09,95,85,4.71,BY,1612492073
35,Longyearbyen,78.2186,15.6401,264.15,73,75,5.66,SJ,1612491882
36,Alyangula,-13.8483,136.4192,303.15,79,90,4.12,AU,1612492073
37,Vradiyivka,47.862,30.5919,270.04,95,87,7.29,UA,1612492073
38,Puerto Narino,-3.7703,-70.3831,297.15,100,75,1.03,CO,1612492073
39,Kamenskoye,,,,,,,,
40,Praia Da Vitoria,38.7333,-27.0667,284.26,87,75,8.41,PT,1612492074
41,Tuktoyaktuk,69.4541,-133.0374,237.15,75,40,4.12,CA,1612492074
42,Faanui,-16.4833,-151.75,300.79,67,16,3,PF,1612492074
43,Kaeo,-35.1,173.7833,294.68,64,99,2.51,NZ,1612492074
44,Viedma,-40.8135,-62.9967,295.93,42,0,7.12,AR,1612492074
45,Shubarshi,48.5872,57.1869,272.79,96,50,3.28,KZ,1612492074
46,Tumannyy,,,,,,,,
47,Cabo San Lucas,22.8909,-109.9124,297.15,38,40,1.54,MX,1612492074
48,Mahebourg,-20.4081,57.7,297.15,83,20,1.03,MU,1612492056
49,New Norfolk,-42.7826,147.0587,299.82,61,100,0.89,AU,1612492075
50,Vaitupu,,,,,,,,
51,Amapa,1,-52,295.02,98,100,1.48,BR,1612492075
52,Castro,-24.7911,-50.0119,291.54,95,0,1.95,BR,1612492075
53,Vardo,70.3705,31.1107,270.93,90,99,9.05,NO,1612492076
54,Thinadhoo,0.5333,72.9333,301.07,76,100,5.29,MV,1612492076
55,Qaanaaq,77.484,-69.3632,244.53,62,56,3.58,GL,1612492076
56,Klaksvik,62.2266,-6.589,275.15,60,40,6.17,FO,1612491959
57,Port Augusta,-32.5,137.7667,296.15,40,90,10.8,AU,1612492076
58,Nanakuli,21.3906,-158.1547,297.15,50,20,7.72,US,1612492076
59,Chernyshevskiy,63.0128,112.4714,236.61,85,98,1.38,RU,1612492076
60,Sao Joao Do Piaui,-8.3581,-42.2467,298.25,66,6,0.77,BR,1612492077
61,Saldanha,-33.0117,17.9442,289.15,82,0,2.57,ZA,1612492077
62,Cherskiy,68.75,161.3,251.89,77,98,4.06,RU,1612492077
63,Kamenka,51.3223,42.7678,276.48,97,100,6.3,RU,1612492077
64,Curup,-3.4667,102.5333,297.13,77,89,0.95,ID,1612492077
65,Krasnogorskoye,52.2953,86.1979,265.7,97,100,0.53,RU,1612492077
66,Severo-Kurilsk,50.6789,156.125,262.52,85,71,4.76,RU,1612492077
67,Chingirlau,51.095,54.0814,274.3,99,100,3.88,KZ,1612492077
68,Akyab,20.15,92.9,291.22,63,64,2.7,MM,1612492078
69,Port Elizabeth,-33.918,25.5701,290.15,94,0,0.51,ZA,1612492078
70,Maun,-19.9833,23.4167,295.15,100,75,1.03,BW,1612492078
71,Taolanaro,,,,,,,,
72,Saint-Joseph,-21.3667,55.6167,299.15,73,90,3.09,RE,1612492078
73,San Felipe,10.3399,-68.7425,295.92,90,99,2.05,VE,1612492078
74,Hermanus,-34.4187,19.2345,290.93,91,26,3.67,ZA,1612492078
75,Tonantins,-2.8731,-67.8022,297.25,96,100,0.58,BR,1612492079
76,Erzin,36.9559,36.2,285.93,64,0,5.81,TR,1612492079
77,Tiksi,71.6872,128.8694,244.26,88,100,3.26,RU,1612492079
78,Kulhudhuffushi,6.6221,73.07,300.43,72,100,2.38,MV,1612492079
79,Kabelvag,68.2114,14.4817,270.37,91,100,4.74,NO,1612492079
80,Hithadhoo,-0.6,73.0833,301.02,78,100,5.36,MV,1612492079
81,East London,-33.0153,27.9116,295.78,74,88,2.65,ZA,1612492080
82,Banjar,-8.19,114.9675,302.15,79,20,3.09,ID,1612492080
83,Vao,-22.6667,167.4833,299.16,87,0,8.16,NC,1612492080
84,Thompson,55.7435,-97.8558,250.15,70,90,4.12,CA,1612491993
85,Meulaboh,4.1363,96.1285,299.56,76,66,1.84,ID,1612492080
86,Bluff,-46.6,168.3333,287.75,71,100,4.86,NZ,1612492080
87,Yulara,-25.2406,130.9889,294.15,60,90,6.69,AU,1612492080
88,Clyde River,70.4692,-68.5914,244.15,69,20,7.2,CA,1612492081
89,Saskylakh,71.9167,114.0833,235.31,78,69,1.02,RU,1612491931
90,Aklavik,68.2191,-135.0107,233.15,67,99,1.03,CA,1612491926
91,Nishihara,26.1842,127.7558,293.15,42,75,2.06,JP,1612492081
92,Bengkulu,-3.8004,102.2655,301.1,69,11,1.58,ID,1612492081
93,Antalaha,-14.9003,50.2788,296.48,89,53,2.34,MG,1612492081
94,Qasigiannguit,68.8193,-51.1922,257.15,36,75,9.26,GL,1612492081
95,Fenoarivo,-18.933,47.4354,291.15,94,40,2.06,MG,1612492082
96,Tasiilaq,65.6145,-37.6368,271.15,74,75,4.63,GL,1612492051
97,Asyut,27.181,31.1837,281.15,76,0,4.12,EG,1612492082
98,Hobart,-42.8794,147.3294,299.82,78,75,6.17,AU,1612492082
99,Coihaique,-45.5752,-72.0662,291.15,52,0,1.54,CL,1612492082
100,Honjo,36.2333,139.1833,280.93,36,0,0.89,JP,1612492082
101,Khandyga,62.6667,135.6,232.63,78,100,0.86,RU,1612492083
102,Bichura,50.5881,107.6022,263.93,93,98,1.41,RU,1612492083
103,Bethel,41.3712,-73.414,271.48,86,1,1.14,US,1612492083
104,Artyk,,,,,,,,
105,Tupik,54.4253,119.9327,245.71,83,100,0.53,RU,1612492083
106,Barentsburg,,,,,,,,
107,Jiuquan,39.7432,98.5174,270.97,68,0,0.89,CN,1612492083
108,Palmerston,-12.486,130.9833,297.15,94,90,2.06,AU,1612492083
109,Namibe,-15.1961,12.1522,294.62,72,0,2.96,AO,1612492003
110,Puerto Ayora,-0.7393,-90.3518,298.15,95,34,1.79,EC,1612492046
111,Kirakira,-10.4544,161.9205,302.61,70,88,3.86,SB,1612492084
112,Vestmannaeyjar,63.4427,-20.2734,277.49,72,100,13.45,IS,1612492084
113,Severobaykalsk,55.65,109.3167,257.69,86,100,1.49,RU,1612492084
114,Likhoy,48.1266,40.2056,279.64,87,100,6.58,RU,1612492084
115,Illoqqortoormiut,,,,,,,,
116,Dukat,62.55,155.55,244.12,85,100,1.89,RU,1612492085
117,Grand River South East,,,,,,,,
118,Lavrentiya,65.5833,-171,251.27,89,100,8.69,RU,1612492085
119,Salalah,17.0151,54.0924,294.15,73,40,2.06,OM,1612492085
120,Victoria,22.2855,114.1577,293.71,60,53,4.02,HK,1612492015
121,Grand Gaube,-20.0064,57.6608,298.71,77,4,2.24,MU,1612492085
122,Torbay,47.6666,-52.7314,277.04,100,90,2.57,CA,1612491803
123,Banda Aceh,5.5577,95.3222,300.17,74,31,7.11,ID,1612492086
124,Haines Junction,60.7522,-137.5108,245.15,69,30,0.26,CA,1612492086
125,George Town,5.4112,100.3354,301.15,65,20,1.54,MY,1612492086
126,Saint-Leu,-21.15,55.2833,298.71,59,45,1.78,RE,1612492086
127,Darovskoy,58.77,47.9564,262.71,96,96,0.29,RU,1612492086
128,Aykhal,66,111.5,235.52,80,13,2.12,RU,1612492086
129,Aviles,43.5547,-5.9248,282.04,87,0,1.03,ES,1612491885
130,Tshikapa,-6.4167,20.8,294.83,88,98,0.66,CD,1612492087
131,Paita,-5.0892,-81.1144,296.93,76,32,5.23,PE,1612492087
132,Shurugwi,-19.6702,30.0059,290.39,96,0,1.96,ZW,1612492087
133,Quelimane,-17.8786,36.8883,297.66,93,1,0.35,MZ,1612492087
134,Kodiak,57.79,-152.4072,271.15,74,1,3.09,US,1612492087
135,Isabela,6.7085,121.9711,302.15,51,75,1.54,PH,1612492087
136,Lebu,-37.6167,-73.65,289.3,79,0,1.09,CL,1612492087
137,Ponta Do Sol,32.6667,-17.1,282.04,68,83,4.02,PT,1612492088
138,Yellowknife,62.456,-114.3525,238.15,75,1,3.6,CA,1612491930
139,Atuona,-9.8,-139.0333,299.19,72,4,4.74,PF,1612492088
140,Kysyl-Syr,63.8986,122.7617,234.46,78,0,1.98,RU,1612492088
141,Gorin,51.1983,136.6669,248.5,82,56,1.95,RU,1612492088
142,Fortuna,40.5982,-124.1573,282.59,87,1,3.6,US,1612492088
143,Samusu,,,,,,,,
144,Abu Dhabi,24.4667,54.3667,289.15,100,90,1.54,AE,1612491866
145,Millau,44.0833,2.9167,282.59,81,0,5.14,FR,1612492089
146,Mys Shmidta,,,,,,,,
147,Mount Gambier,-37.8333,140.7667,291.15,55,40,6.69,AU,1612492089
148,Coruripe,-10.1256,-36.1756,298.86,80,10,5.79,BR,1612492022
149,Cimislia,46.52,28.7842,274.15,75,40,4.63,MD,1612492089
150,Butaritari,3.0707,172.7902,299.92,84,98,6.06,KI,1612492089
151,Champerico,14.3,-91.9167,293.71,92,9,0.45,GT,1612492090
152,Khatanga,71.9667,102.5,238.25,78,0,4.28,RU,1612492090
153,Constitucion,-35.3333,-72.4167,288.79,90,87,1.03,CL,1612492090
154,Hamilton,39.1834,-84.5333,275.93,87,90,4.63,US,1612491504
155,Iberia,29.9502,-91.7507,291.15,88,90,4.63,US,1612492090
156,Half Moon Bay,37.4636,-122.4286,286.15,53,1,2.57,US,1612492090
157,Gamba,-2.65,10,298.74,88,100,1.45,GA,1612492090
158,Kapaa,22.0752,-159.319,294.15,56,90,2.57,US,1612492090
159,Otradnoye,59.7775,30.8181,259.82,78,40,4,RU,1612492091
160,Viligili,,,,,,,,
161,Chokurdakh,70.6333,147.9167,247.31,86,96,9.03,RU,1612492091
162,Yenagoa,4.9247,6.2642,298.87,89,1,1.29,NG,1612492091
163,Selikhino,50.3672,137.4996,250.59,86,100,6.01,RU,1612492091
164,Sabha,27.0377,14.4283,284.63,43,0,3.41,LY,1612492091
165,Provideniya,64.3833,-173.3,252.42,89,100,12.16,RU,1612492091
166,Touros,-5.1989,-35.4608,299.15,78,20,3.09,BR,1612492092
167,Tidore,,,,,,,,
168,Esperance,-33.8667,121.9,290.15,55,90,5.66,AU,1612492092
169,Mongo,12.1844,18.693,291.75,25,54,3.59,TD,1612492089
170,Saint-Philippe,-21.3585,55.7679,299.15,73,90,3.09,RE,1612491992
171,Drolshagen,51.0167,7.7667,278.15,79,100,1.79,DE,1612492092
172,Puerto Penasco,31.3167,-113.5333,292.59,38,18,1.79,MX,1612492092
173,Gander,48.9682,-54.5906,275.15,100,90,3.6,CA,1612491877
174,Chuy,-33.6971,-53.4616,292.12,79,98,6.44,UY,1612492093
175,Paramonga,-10.6667,-77.8333,294.15,81,90,1.55,PE,1612492093
176,Sambava,-14.2667,50.1667,297.13,88,96,2.56,MG,1612492093
177,Mana,5.6592,-53.7767,298.34,80,97,6.05,GF,1612492093
178,Narsaq,60.9167,-46.05,263.15,52,31,2.57,GL,1612492093
179,Daman,20.4167,72.85,293.41,49,0,3.75,IN,1612491814
180,Portland,45.5234,-122.6762,280.37,87,90,3.6,US,1612491804
181,Fort Nelson,58.8053,-122.7002,247.15,76,90,1.03,CA,1612492094
182,Macaboboni,,,,,,,,
183,Belaya Gora,68.5333,146.4167,245.94,87,51,4.6,RU,1612492094
184,Moquegua,-17.1956,-70.9353,292.19,67,99,0.45,PE,1612492094
185,Necochea,-38.5473,-58.7368,286.48,96,0,0.89,AR,1612492094
186,Kruisfontein,-34.0033,24.7314,290.37,95,0,0.45,ZA,1612492058
187,General Elizardo Aquino,-24.4333,-56.7,294.3,82,0,2.63,PY,1612492094
188,Tsihombe,,,,,,,,
189,Itarema,-2.9248,-39.9167,298.91,81,98,5.12,BR,1612492095
190,Rocha,-34.4833,-54.3333,292.07,72,100,7.23,UY,1612491957
191,Kahului,20.8947,-156.47,295.15,68,90,5.14,US,1612492095
192,Antofagasta,-23.65,-70.4,292.15,77,75,4.63,CL,1612492095
193,Luderitz,-26.6481,15.1594,292.51,61,0,7.55,NA,1612492095
194,El Faiyum,,,,,,,,
195,Norilsk,69.3535,88.2027,242.05,85,99,0.07,RU,1612491980
196,Valdemarpils,57.3707,22.5919,270.15,100,90,7.2,LV,1612492096
197,Katsuura,35.1333,140.3,281.15,36,40,1.54,JP,1612492096
198,Mumford,5.2618,-0.759,299.82,86,0,4.22,GH,1612492096
199,Lodja,-3.4833,23.4333,293.45,96,55,0.35,CD,1612492096
200,Hearst,49.6835,-83.6665,274.15,51,100,3.6,CA,1612492096
201,Lagoa,39.05,-27.9833,285.51,73,71,9.5,PT,1612492096
202,Pevek,69.7008,170.3133,247.82,78,72,2.38,RU,1612492097
203,Husavik,66.0449,-17.3389,270.15,74,0,8.23,IS,1612492097
204,Ayan,56.45,138.1667,247.8,86,100,5.81,RU,1612492097
205,Avera,33.194,-82.5271,283.15,49,1,2.06,US,1612491970
206,Raudeberg,61.9875,5.1352,269.15,54,0,7.2,NO,1612492097
207,Bonthe,7.5264,-12.505,298.25,87,0,2.76,SL,1612492097
208,Mount Isa,-20.7333,139.5,308.15,41,40,7.2,AU,1612492097
209,Neiafu,-18.65,-173.9833,301.15,89,75,4.63,TO,1612492098
210,Muli,2.9167,73.5667,300.81,73,96,7.81,MV,1612492098
211,Paradwip,,,,,,,,
212,Bairiki,1.3292,172.9752,303.15,70,20,5.14,KI,1612492098
213,San Miguel,13.4833,-88.1833,296.08,61,65,1.6,SV,1612492098
214,Hue,16.4667,107.6,296.15,83,75,4.12,VN,1612492025
215,Nainpur,22.4333,80.1167,286.83,37,0,1.31,IN,1612492098
216,Garachine,8.0647,-78.3628,298.61,83,70,4.63,PA,1612492099
217,Bathsheba,13.2167,-59.5167,299.15,65,20,8.23,BB,1612492099
218,Hasaki,35.7333,140.8333,281.15,34,20,3.6,JP,1612492099
219,Mega,4.05,38.3,285.96,55,0,2.71,ET,1612492099
220,Swellendam,-34.0226,20.4417,290.15,88,7,1.03,ZA,1612492099
221,Tuburan,6.6439,122.2736,302.15,51,75,1.54,PH,1612492099
222,Umbertide,43.3055,12.3366,283.71,92,84,0.82,IT,1612492099
223,Jardim,-21.4803,-56.1381,295.23,88,53,1.79,BR,1612492099
224,Santa Cruz Cabralia,-16.2781,-39.0247,299.15,78,0,2.57,BR,1612492100
225,Ancud,-41.8697,-73.8203,294.15,49,0,5.14,CL,1612492100
226,Laguna,38.421,-121.4238,286.15,44,1,2.06,US,1612492100
227,Lompoc,34.6391,-120.4579,285.15,76,1,3.6,US,1612492025
228,Kedrovyy,56.1667,91.8167,255.15,92,0,2,RU,1612492100
229,Fuerte Olimpo,-21.0415,-57.8738,296.56,83,55,1.51,PY,1612492100
230,Hope,33.6671,-93.5916,283.71,49,69,2.24,US,1612492100
231,Morros,-9.4467,-46.3003,296.08,85,85,0.61,BR,1612492101
232,Beckley,37.7782,-81.1882,278.15,52,20,7.72,US,1612492101
233,Parana,-31.732,-60.5238,295.37,66,0,0.89,AR,1612492087
234,Moroni,-11.7022,43.2551,299.92,71,90,0.62,KM,1612492101
235,Bethanien,-26.502,17.1583,295.7,36,0,2.28,NA,1612492101
236,Buala,-8.145,159.5921,303.29,67,0,3.76,SB,1612492101
237,Krasnyy Chikoy,50.3643,108.7512,264.14,93,100,1.72,RU,1612492101
238,Egvekinot,66.3167,-179.1667,244.73,90,100,7.79,RU,1612492102
239,Tournon-Sur-Rhone,45.0667,4.8333,284.15,82,90,4.63,FR,1612492102
240,Airai,-8.9266,125.4092,293.27,94,100,2.29,TL,1612492102
241,Ongandjera,-17.8833,15.0667,297.74,40,34,3.53,NA,1612492102
242,Toora-Khem,52.4675,96.11,260,91,100,0.35,RU,1612492102
243,Buta,2.7858,24.73,294.68,95,100,0.36,CD,1612492102
244,Ardesen,41.1911,40.9875,287.15,47,90,6.69,TR,1612492102
245,Guerrero Negro,27.9769,-114.0611,289.12,69,100,7.28,MX,1612492103
246,Juegang,32.3174,121.1855,282.04,81,100,2.47,CN,1612492103
247,Olafsvik,64.8945,-23.7142,276.62,81,100,15.71,IS,1612492103
248,Carnarvon,-24.8667,113.6333,299.15,76,75,8.23,AU,1612492103
249,Bubaque,11.2833,-15.8333,298.47,66,61,6,GW,1612492103
250,Bilibino,68.0546,166.4372,248.48,79,100,4.16,RU,1612492103
251,Veyrier,46.167,6.1844,278.15,93,20,1.03,CH,1612492103
252,Novokizhinginsk,51.6115,109.5917,262.2,90,100,4.65,RU,1612492104
253,Saleaula,,,,,,,,
254,Naryan-Mar,67.6713,53.087,246.36,87,95,6.09,RU,1612492104
255,Rubio,7.7013,-72.3557,301.15,65,40,1.03,VE,1612492104
256,Tateyama,34.9833,139.8667,283.15,57,75,2.57,JP,1612492104
257,Sentyabrskiy,,,,,,,,
258,Tombouctou,20,-3,295.29,17,54,3.58,ML,1612492104
259,Kangaatsiaq,68.3065,-53.4641,257.03,83,100,7.29,GL,1612492104
260,Arraial Do Cabo,-22.9661,-42.0278,298.24,83,0,11.86,BR,1612492105
261,Karoi,-16.8099,29.6925,290.82,97,6,1.89,ZW,1612492105
262,Port Blair,11.6667,92.75,300.57,74,4,5.86,IN,1612492105
263,Mar Del Plata,-38.0023,-57.5575,291.48,77,75,4.12,AR,1612492044
264,Kamiiso,41.8167,140.65,268.15,68,75,5.14,JP,1612492105
265,Santa Rosa,14.3122,121.1114,302.04,65,75,2.57,PH,1612491476
266,Tutayev,57.8853,39.5406,263.15,85,40,2,RU,1612492105
267,Attawapiskat,,,,,,,,
268,Grand-Santi,4.25,-54.3833,295.1,91,100,1.4,GF,1612492106
269,Yining,29.0361,114.5636,284.15,91,100,0.73,CN,1612492106
270,Dzerzhinsk,56.2389,43.4631,270.15,93,90,6,RU,1612492106
271,Bambous Virieux,-20.3428,57.7575,298.71,83,20,1.03,MU,1612492106
272,Lakes Entrance,-37.8811,147.981,302.04,54,100,0.45,AU,1612492106
273,Brainerd,46.358,-94.2008,260.15,61,90,6.17,US,1612492106
274,Azul,-36.777,-59.8585,290.24,48,0,3.55,AR,1612492107
275,Kavieng,-2.5744,150.7967,301.72,75,90,1.95,PG,1612492107
276,Djambala,-2.5447,14.7533,294.73,87,100,0.44,CG,1612492107
277,Geraldton,-28.7667,114.6,299.15,29,100,10.8,AU,1612492107
278,Bambanglipuro,-7.95,110.2833,301.09,75,94,1.6,ID,1612492107
279,Saint George,37.1041,-113.5841,282.15,25,1,5.66,US,1612492107
280,Shitanjing,39.2342,106.3439,273.46,70,0,11.74,CN,1612492107
281,Qaqortoq,60.7167,-46.0333,263.15,52,99,2.57,GL,1612492108
282,Algiers,36.7525,3.042,294.15,26,75,5.66,DZ,1612492108
283,Oni,42.5794,43.4425,278.42,68,100,0.77,GE,1612492108
284,Minot,48.2325,-101.2963,257.15,66,1,8.75,US,1612491937
285,Saint Anthony,45.0205,-93.218,262.15,67,20,7.2,US,1612492108
286,Mudanya,40.3753,28.8822,284.15,93,0,1.03,TR,1612491910
287,Dali,25.7,100.1833,283.66,46,23,0.81,CN,1612492108
288,Semey,50.4111,80.2275,269.15,93,90,3,KZ,1612492109
289,Iqaluit,63.7506,-68.5145,262.15,85,90,4.12,CA,1612492109
290,Guarapari,-20.6667,-40.4975,299.26,83,20,4.63,BR,1612492109
291,Mungaoli,24.4167,78.1,288.21,54,82,2.65,IN,1612492109
292,Sume,-7.6717,-36.88,295.72,78,27,6.05,BR,1612492109
293,Boyle,37.6334,-84.8666,279.15,93,90,6.69,US,1612492109
294,Dingle,10.9995,122.6711,300.93,79,83,6.87,PH,1612492109
295,Kabanjahe,3.1001,98.4908,301.15,89,20,3.09,ID,1612492109
296,Tiznit,29.5833,-9.5,283.36,70,85,1.39,MA,1612492110
297,Santa Maria,-29.6842,-53.8069,292.15,94,0,1.54,BR,1612492110
298,Slave Lake,55.2834,-114.769,254.15,71,90,4.63,CA,1612492110
299,Palmer,42.1584,-72.3287,269.82,93,20,1.32,US,1612492110
300,Goderich,43.7501,-81.7165,274.15,47,100,6.69,CA,1612492110
301,Shubarkuduk,49.1447,56.4872,273.6,94,97,3.43,KZ,1612492110
302,Tabou,4.423,-7.3528,298.83,90,85,3.35,CI,1612492110
303,Tura,25.5198,90.2201,291.23,53,0,1.09,IN,1612492111
304,Ponoka,52.6768,-113.5815,260.15,92,81,3.09,CA,1612492111
305,Vernon,50.2581,-119.2691,274.26,93,100,0.51,CA,1612492071
306,Chekhov,55.1431,37.4711,264.82,96,100,6.1,RU,1612492111
307,Norman Wells,65.282,-126.8329,232.15,66,40,3.09,CA,1612492111
308,Mangrol,21.1167,70.1167,291.04,55,0,5.71,IN,1612492111
309,Ribeira Grande,38.5167,-28.7,286.05,70,34,8.76,PT,1612492111
310,Kavaratti,10.5669,72.642,300.35,76,39,5.96,IN,1612492112
311,Port Macquarie,-31.4333,152.9167,303.15,57,3,1.79,AU,1612492112
312,Tomatlan,19.9333,-105.25,293.19,73,0,1.15,MX,1612492112
313,Marion,39.7684,-86.1555,275.93,93,90,11.83,US,1612492076
314,Luanda,-8.8368,13.2343,299.15,83,75,2.57,AO,1612491501
315,Uttaradit,17.6667,100.5,296.15,68,0,1.12,TH,1612492112
316,Itaporanga,-7.3044,-38.1503,297.58,73,27,2.79,BR,1612491936
317,Neuquen,-38.9516,-68.0591,297.15,57,0,1.03,AR,1612492113
318,Okha,53.5739,142.9478,249.91,88,100,10.01,RU,1612491977
319,Acarau,-2.8856,-40.12,298.84,82,97,5.62,BR,1612492113
320,Ishigaki,24.3448,124.1572,295.15,56,20,6.17,JP,1612492113
321,Isla Mujeres,21.2311,-86.731,297.04,68,1,3.09,MX,1612492113
322,Marathon,44.9,-89.7668,269.15,80,90,8.75,US,1612492113
323,Ust-Tsilma,65.441,52.1498,254.49,92,100,4.35,RU,1612492113
324,Nieuw Amsterdam,5.8833,-55.0833,299.26,86,0,1.79,SR,1612492114
325,Karratha,-20.7377,116.8463,302.43,70,40,6.17,AU,1612492114
326,Tibati,6.4667,12.6333,289.61,30,0,0.5,CM,1612492114
327,Lorengau,-2.0226,147.2712,300.07,80,100,3.38,PG,1612492114
328,Atbasar,51.8,68.3333,271.57,98,100,3.84,KZ,1612492114
329,Bud,39.447,-86.1758,274.26,94,100,7.13,US,1612492114
330,Mapiripan,2.8892,-72.1256,297.71,88,100,1.51,CO,1612492115
331,Kamaishi,39.2667,141.8833,273.15,59,40,4.63,JP,1612492115
332,College,64.8569,-147.8028,245.15,76,40,0.68,US,1612491826
333,Muisne,0.6,-80.0333,297.97,90,100,2.06,EC,1612491938
334,Komsomolskiy,40.4272,71.7189,272.15,69,0,3.09,UZ,1612492115
335,Port Victoria,0.0939,33.9756,295.02,72,30,2.35,KE,1612492115
336,Ondjiva,-17.0667,15.7333,295.71,48,90,1.73,AO,1612492116
337,La Palma,33.8464,-118.0467,288.15,94,1,3.6,US,1612492116
338,Burica,,,,,,,,
339,Moron,-34.6534,-58.6198,297.04,61,0,1.34,AR,1612492116
340,Karuzi,-3.125,30.1333,288.72,92,66,0.83,BI,1612492116
341,Ambodifototra,,,,,,,,
342,Omsukchan,62.5333,155.8,246.37,84,100,1.8,RU,1612492116
343,Amderma,,,,,,,,
344,Nemuro,43.3236,145.575,265.15,53,40,4.63,JP,1612492117
345,Nikolskoye,59.7035,30.7861,259.82,78,40,4,RU,1612492117
346,La Ronge,55.1001,-105.2842,255.15,78,100,4.12,CA,1612492100
347,Nome,64.5011,-165.4064,260.37,72,90,8.23,US,1612492117
348,Mocambique,,,,,,,,
349,Tazovskiy,67.4667,78.7,241.8,87,100,3.4,RU,1612492117
350,Yacuiba,-22.038,-63.6797,292.37,77,50,1.63,BO,1612492117
351,Grindavik,63.8424,-22.4338,276.15,87,75,12.86,IS,1612492118
352,Akdepe,42.0551,59.3788,277.15,93,100,3.09,TM,1612492118
353,Sao Joao Da Barra,-21.6403,-41.0511,298.52,82,0,9.48,BR,1612492118
354,Yar-Sale,66.8333,70.8333,243.18,87,3,2.76,RU,1612492118
355,Kuytun,54.3419,101.5036,258.63,93,99,4.57,RU,1612492118
356,Catuday,16.2923,119.8062,299.31,66,49,4.12,PH,1612492118
357,Muravlenko,63.7898,74.523,244.75,89,78,2.42,RU,1612492118
358,Henties Bay,-22.116,14.2845,292.04,84,9,0.89,NA,1612492119
359,Sioux Lookout,50.1001,-91.917,259.15,78,90,6.17,CA,1612492119
360,Los Reyes,19.35,-98.9667,295.15,26,1,4.12,MX,1612492119
361,Thurso,58.5927,-3.5259,275.15,87,75,11.83,GB,1612492119
362,Lichinga,-13.3128,35.2406,291.15,94,75,2.57,MZ,1612492119
363,Turukhansk,65.8167,87.9833,243.73,88,100,2.14,RU,1612492119
364,Mehamn,71.0357,27.8492,270.36,91,100,6.33,NO,1612492119
365,Kautokeino,69.0125,23.0412,266.74,96,100,4.85,NO,1612492119
366,Copiapo,-27.3667,-70.3333,289.15,82,90,3.09,CL,1612492120
367,Almaznyy,48.0448,40.045,278.15,100,75,7,RU,1612492120
368,Atherton,53.5237,-2.4935,280.37,87,100,0.89,GB,1612492120
369,Kupang,-10.1667,123.5833,302.15,79,40,6.17,ID,1612492120
370,Ola,59.5833,151.2833,254.72,84,93,7.03,RU,1612492120
371,Altay,47.8667,88.1167,265.35,90,76,0.79,CN,1612492120
372,Bousso,10.4795,16.7117,295.41,21,54,4.31,TD,1612492120
373,Rockland,41.1668,-74.0496,271.48,85,0,0.45,US,1612492121
374,Namatanai,-3.6667,152.4333,302.86,68,14,2.12,PG,1612492121
375,Saint-Augustin,51.226,-58.6502,274.57,96,100,5.78,CA,1612492121
376,Gazli,40.1333,63.45,281.46,66,81,5.28,UZ,1612492121
377,Jaciara,-15.9653,-54.9683,296.79,86,98,1.67,BR,1612492121
378,Berlevag,70.8578,29.0864,270.79,90,100,7.32,NO,1612492121
379,Kotka,60.4664,26.9458,256.48,85,0,3.6,FI,1612492121
380,San Patricio,28.017,-97.5169,293.15,83,40,6.17,US,1612492122
381,Southbridge,42.0751,-72.0334,269.82,71,0,1.56,US,1612491984
382,Aswan,24.0934,32.907,286.87,62,0,5.03,EG,1612492122
383,Hambantota,6.1241,81.1185,295.15,94,40,1.54,LK,1612492122
384,Naze,28.3667,129.4833,293.15,52,20,3.09,JP,1612492122
385,Constantine,36.365,6.6147,279.15,61,0,1.03,DZ,1612492122
386,Makakilo City,21.3469,-158.0858,297.15,50,20,7.72,US,1612492122
387,Morehead,37.2711,-87.1764,281.15,81,90,4.63,US,1612492123
388,Barrhead,55.7992,-4.3929,278.15,93,90,5.14,GB,1612492123
389,Sooke,48.3746,-123.7276,282.15,87,100,13.89,CA,1612492123
390,Mugla,37.2303,28.3557,284.15,100,0,1.54,TR,1612492123
391,Broome,42.2506,-75.833,272.15,59,1,1.54,US,1612492123
392,Saint-Andre-Les-Vergers,48.2853,4.0521,282.15,93,90,1.54,FR,1612492123
393,Bolungarvik,,,,,,,,
394,Vila Velha,-20.3297,-40.2925,299.26,83,20,4.63,BR,1612492124
395,Eldorado,-23.7869,-54.2836,293.87,84,0,3.52,BR,1612491901
396,Hay River,60.8156,-115.7999,242.15,76,68,3.6,CA,1612492124
397,Zhangye,38.9342,100.4517,273.22,63,6,2.64,CN,1612492124
398,Leh,34.1667,77.5833,258.42,60,100,1.35,IN,1612492124
399,Kumertau,52.7667,55.7833,274.02,99,100,3.53,RU,1612492124
400,Rio Grande,-32.035,-52.0986,292.15,88,0,5.14,BR,1612491971
401,Wanning,18.8003,110.3967,295.37,74,12,3.15,CN,1612492125
402,Tilichiki,60.4667,166.1,253.61,93,98,7.09,RU,1612492125
403,Nanortalik,60.1432,-45.2371,267.27,78,100,3.69,GL,1612492125
404,Kiunga,-6.1219,141.2906,299.94,76,91,2.19,PG,1612492125
405,Cockburn Town,21.4612,-71.1419,296.15,64,40,3.09,TC,1612492125
406,Soyo,-6.1349,12.3689,299.84,85,100,3.91,AO,1612492125
407,Atikokan,48.7555,-91.6216,258.28,93,100,4.37,CA,1612492125
408,Lipin Bor,60.2622,37.9763,258.75,95,82,3.27,RU,1612492126
409,Pedra Azul,-16.0053,-41.2972,292.72,96,4,1.69,BR,1612492126
410,Burnie,-41.0667,145.9167,292.59,98,100,2.24,AU,1612492126
411,Caconde,-21.5294,-46.6439,294.44,92,100,0.76,BR,1612492126
412,Vestmanna,62.1564,-7.1664,275.15,60,40,6.17,FO,1612492126
413,Markova,48.6758,24.4138,271.57,96,93,1.4,UA,1612492126
414,San Carlos De Bariloche,-41.1456,-71.3082,293.15,30,0,3.6,AR,1612492126
415,Batagay-Alyta,67.8006,130.4114,244.13,86,100,1.34,RU,1612491995
416,Tarauaca,-8.1614,-70.7656,296.52,95,100,0.69,BR,1612492127
417,Dubrovnik,42.6481,18.0922,284.15,82,40,4.12,HR,1612492127
418,Saint-Francois,46.4154,3.9054,279.82,93,90,1.03,FR,1612492127
419,Periban,,,,,,,,
420,Zhezkazgan,47.8043,67.7144,261.15,85,90,1,KZ,1612492127
421,Ulaanbaatar,47.9077,106.8832,259.15,78,75,2,MN,1612492006
422,Maragogi,-9.0122,-35.2225,298.77,82,15,4.26,BR,1612492128
423,Canoas,-29.9178,-51.1836,294.15,83,20,4.12,BR,1612492128
424,Saint-Pierre,-21.3393,55.4781,299.15,73,90,3.09,RE,1612492128
425,Derzhavinsk,51.1,66.3167,272,98,100,5.11,KZ,1612492128
426,Shingu,33.7333,135.9833,283.15,43,40,3.09,JP,1612492128
427,Kot Diji,27.3427,68.7083,282.15,81,0,1.36,PK,1612492128
428,Port Hardy,50.6996,-127.4199,279.15,93,90,2.06,CA,1612492129
429,Itupiranga,-5.1347,-49.3267,301.15,89,0,1.54,BR,1612492129
430,Molchanovo,57.5817,83.7692,253.67,93,59,2.47,RU,1612492129
431,Sant Julia De Loria,42.4625,1.4825,280.37,74,2,0.45,AD,1612492129
432,Katherine,-14.4667,132.2667,302.15,70,75,2.57,AU,1612492129
433,Axim,4.8699,-2.2405,299.36,88,0,3.01,GH,1612492129
434,Palabuhanratu,,,,,,,,
435,Glomfjord,66.8167,13.9667,268.15,86,75,3.6,NO,1612492130
436,Sawakin,19.1059,37.3321,296.61,61,100,7.67,SD,1612492130
437,Burlington,39.8835,-74.6413,273.71,64,1,2.06,US,1612491951
438,Tadine,-21.55,167.8833,300.91,77,0,6.48,NC,1612492130
439,Niquelandia,-14.4739,-48.4597,295.57,87,75,0.06,BR,1612492130
440,Kinshasa,-4.3246,15.3215,297.15,83,20,1.54,CD,1612491938
441,Labuhan,-6.8844,112.2051,301.22,79,84,8.62,ID,1612492131
442,Hofn,64.2539,-15.2082,275.32,80,100,6.17,IS,1612492131
443,Xining,36.6167,101.7667,268.35,59,0,1.19,CN,1612492131
444,Selma,36.5708,-119.6121,285.15,81,1,2.7,US,1612492131
445,Enumclaw,47.2043,-121.9915,281.48,91,100,1.34,US,1612492131
446,Zaysan,47.4667,84.8667,264.72,91,100,0.2,KZ,1612492131
447,Cidreira,-30.1811,-50.2056,293.41,76,0,6.95,BR,1612492131
448,Sao Felix Do Xingu,-6.6447,-51.995,297.3,85,89,0.46,BR,1612492132
449,Havelock,34.8791,-76.9013,281.48,75,1,2.57,US,1612492132
450,Bilma,18.6853,12.9164,288.25,33,0,2.85,NE,1612492132
451,Tocopilla,-22.092,-70.1979,292.98,61,48,0.24,CL,1612492132
452,Pozo Colorado,-23.4923,-58.7972,295.85,61,0,2.1,PY,1612492132
453,Xiongzhou,25.1167,114.3,295.64,52,0,1.37,CN,1612492132
454,Kamalasai,16.3384,103.5756,298.71,64,0,4.63,TH,1612492132
455,Walvis Bay,-22.9575,14.5053,292.04,82,1,3.6,NA,1612492132
456,Mvuma,-19.2792,30.5283,290.51,94,2,2.55,ZW,1612492133
457,Sampit,-2.5333,112.95,300.06,81,100,1.31,ID,1612492133
458,Bafq,31.6128,55.4107,283.43,38,0,2.29,IR,1612492133
459,Balad,34.0164,44.1453,287.96,67,100,8,IQ,1612492133
460,Ocos,14.5094,-92.1933,298.15,88,40,2.66,GT,1612492133
461,Dunedin,-45.8742,170.5036,286.48,70,84,11.18,NZ,1612492133
462,Pak Phanang,8.3511,100.202,303.15,74,20,1.54,TH,1612492133
463,Loubomo,-4.1997,12.6739,296.6,95,100,1.26,CG,1612492134
464,Xucheng,20.35,110.1288,295.15,78,40,5,CN,1612492134
465,Ilulissat,69.2167,-51.1,257.15,36,75,9.26,GL,1612492134
466,Geresk,,,,,,,,
467,Isangel,-19.55,169.2667,294.15,100,75,1.54,VU,1612492097
468,Haapiti,-17.5667,-149.8667,300.93,65,23,0.89,PF,1612492135
469,Collie,-33.3667,116.15,292.59,39,0,2.24,AU,1612492094
470,Ende,-8.8432,121.6623,301.78,70,99,1.39,ID,1612492043
471,Rio Pomba,-21.2747,-43.1792,295.37,89,0,0.45,BR,1612492135
472,Turki,51.987,43.2731,276.33,99,100,6.09,RU,1612492135
473,Smidovich,48.6,133.8167,251.59,85,0,5.19,RU,1612491850
474,Svetlaya,46.5389,138.3297,259.49,79,100,3.53,RU,1612492135
475,Inhambane,-23.865,35.3833,299.82,85,32,1.43,MZ,1612492135
476,Codrington,-38.2667,141.9667,290.55,58,52,4.66,AU,1612492136
477,Saint-Paul,-21.0096,55.2707,295.93,95,8,0.45,RE,1612492136
478,Benghazi,32.1167,20.0667,288.4,74,0,1.8,LY,1612492136
479,Daru,-9.0763,143.2092,304.7,63,14,4.79,PG,1612492136
480,Pedras De Fogo,-7.4019,-35.1164,299.15,83,0,2.57,BR,1612492136
481,Deputatskiy,69.3,139.9,240.99,87,99,1.65,RU,1612492136
482,Palu,-0.8917,119.8707,304.18,51,52,1.01,ID,1612492136
483,Gazimurskiy Zavod,51.5461,118.3266,252.93,88,98,1.29,RU,1612492137
484,Teguldet,57.3064,88.1667,256.99,94,93,2.67,RU,1612492137
485,Qui Nhon,13.7667,109.2333,296.5,82,15,4.97,VN,1612492137
486,Teluknaga,-6.0989,106.6381,302.04,78,40,6.69,ID,1612492137
487,Oussouye,12.485,-16.5469,295.15,78,0,2.06,SN,1612492137
488,Padang,-0.9492,100.3543,302.15,74,20,1.54,ID,1612491869
489,Port-De-Paix,,,,,,,,
490,Forrest City,35.0081,-90.7898,280.15,81,1,4.63,US,1612492024
491,Superior,46.7208,-92.1041,264.15,67,90,8.23,US,1612491945
492,Straumen,63.8709,11.2999,267.59,78,20,4.12,NO,1612492138
493,Tjome,59.1109,10.3933,261.48,67,0,3.09,NO,1612492138
494,Bay Saint Louis,30.3088,-89.33,291.15,72,75,4.12,US,1612492138
495,Beira,-19.8436,34.8389,300.15,94,20,2.06,MZ,1612492138
496,Tala,30.6803,30.9429,285.73,95,0,4.51,EG,1612492139
497,Lamesa,32.7376,-101.951,282.15,43,1,3.6,US,1612492139
498,Puerto Suarez,-18.95,-57.8,298.04,81,99,2.33,BO,1612492139
499,Ondorhaan,,,,,,,,
500,Fare,-16.7,-151.0167,300.87,68,0,3.73,PF,1612492139
501,Les Cayes,18.2,-73.75,296.44,81,1,2.86,HT,1612492139
502,Basyanovskiy,,,,,,,,
503,Kisac,45.3503,19.7286,276.15,100,0,1.74,RS,1612492140
504,Vanimo,-2.6741,141.3028,303.73,63,50,2.36,PG,1612492140
505,Jacareacanga,-6.2222,-57.7528,297.71,87,46,0.25,BR,1612492140
506,Road Town,18.4167,-64.6167,299.15,83,40,4.12,VG,1612492140
507,Lasa,46.6166,10.7002,277.04,86,0,1.56,IT,1612492140
508,Dudinka,69.4058,86.1778,237.75,84,100,1.49,RU,1612492140
509,Kpandae,8.4689,-0.0113,300.02,67,0,2.47,GH,1612492140
510,Safaga,26.7292,33.9365,288.15,63,0,5.14,EG,1612492140
511,Chara,56.9064,118.2631,250.28,80,99,0.18,RU,1612492141
512,Vila Franca Do Campo,37.7167,-25.4333,285.37,66,40,4.63,PT,1612492141
513,Lashma,54.9321,41.1438,268.96,98,100,5.26,RU,1612492141
514,Atambua,-9.1061,124.8925,297.06,92,100,2.21,ID,1612492141
515,Hami,42.8,93.45,271.11,85,0,1.16,CN,1612492079
516,Ozernovskiy,51.5,156.5167,263.08,88,100,5.73,RU,1612492141
517,Cheuskiny,,,,,,,,
518,Sotnikovo,51.8845,107.4791,255.15,85,40,2.9,RU,1612492142
519,Sumbe,-11.2061,13.8437,297.1,85,83,1.81,AO,1612492142
520,San Vicente,-26.6167,-54.1333,290.24,95,0,1.55,AR,1612492142
521,Zalantun,48,122.7167,262.63,89,11,2.67,CN,1612492142
522,Baixa Grande,-11.9597,-40.1681,296.58,80,0,2.45,BR,1612492142
523,Westport,41.1415,-73.3579,274.82,80,1,2.37,US,1612492054
524,Asasa,7.1,39.2,283.62,44,22,0.45,ET,1612492143
525,Oksfjord,70.2396,22.3479,271.48,80,90,1.54,NO,1612492143
526,Portobelo,9.55,-79.65,300.37,99,93,5.1,PA,1612492143
527,Hualmay,-11.0964,-77.6139,294.77,76,100,1.39,PE,1612492143
528,Halalo,,,,,,,,
529,Kaitangata,-46.2817,169.8464,288.15,70,62,7.6,NZ,1612492143
530,Hihifo,,,,,,,,
531,Smithers,54.7804,-127.1743,269.15,93,90,1.03,CA,1612491928
532,Vostok,46.4856,135.8833,252.55,85,3,2.53,RU,1612492144
533,Lagos,6.5833,3.75,301.15,89,20,1.31,NG,1612492023
534,Shache,38.4167,77.2406,270.22,84,0,1.84,CN,1612492144
535,Inza,53.8533,46.3586,275.54,97,100,4.27,RU,1612491850
536,Arcachon,44.5875,-1.0519,283.15,93,90,3.09,FR,1612492144
537,Golubitskaya,45.3222,37.2822,283.15,81,92,4,RU,1612492144
538,Ekhabi,53.5102,142.9671,249.96,88,100,9.6,RU,1612492145
539,Havre-Saint-Pierre,50.2334,-63.5986,273.15,100,90,2.06,CA,1612491854
540,Tigil,57.8,158.6667,258.47,91,66,1.29,RU,1612492145
541,Mahad,18.0833,73.4167,293.59,43,6,1.19,IN,1612492145
542,Aberystwyth,52.4155,-4.0829,277.59,100,91,3.69,GB,1612492145
543,Ndjole,-0.1783,10.7649,297.45,93,100,0.46,GA,1612492145
544,Mercedes,-34.6515,-59.4307,292.04,79,0,2.28,AR,1612492145
545,Marawi,7.9986,124.2928,300.93,80,72,2.24,PH,1612492146
546,Katobu,-4.9408,122.5276,301.43,77,100,2.54,ID,1612492146
547,Wewak,-3.5534,143.6268,303,66,12,2.57,PG,1612492146
548,Dossor,47.5272,52.9811,276.08,84,99,3.57,KZ,1612492146
549,Umm Kaddadah,13.6017,26.6876,289.45,31,0,8.24,SD,1612492146
550,Weatherford,32.7593,-97.7972,282.59,59,93,0.89,US,1612492146
551,Awbari,26.5921,12.7805,283.83,44,0,3.47,LY,1612492146
552,Cumaribo,,,,,,,,
553,Ketchikan,55.3422,-131.6461,277.15,100,40,5.14,US,1612492147
554,Puerto Parra,6.6515,-74.0573,298.35,84,46,0.89,CO,1612492147
555,Gazanjyk,39.2446,55.5154,283.02,47,100,1.11,TM,1612492147
556,Sola,-13.8833,167.55,298.49,89,100,5.67,VU,1612492147
557,Nova Aurora,-22.8667,-52.5667,295.51,88,0,4.12,BR,1612492147
558,Taltal,-25.4,-70.4833,291.39,76,35,0.94,CL,1612492147
559,Utiroa,,,,,,,,
560,Mackay,-21.15,149.2,303.15,66,53,6.69,AU,1612492148
561,Rafai,4.95,23.9167,293.34,82,29,1.43,CF,1612492148
562,Koumac,-20.5667,164.2833,301.08,75,31,4.09,NC,1612492148
563,Bystrice Nad Pernstejnem,49.5229,16.2615,273.15,84,70,0.13,CZ,1612492148
564,Vaitape,-16.5167,-151.75,300.79,67,16,3.06,PF,1612492148
565,Del Rio,29.3627,-100.8968,295.15,30,1,3.09,US,1612492148
566,Mecca,21.4267,39.8261,294.82,78,82,2.78,SA,1612492149
567,Sao Gabriel Da Cachoeira,-0.1303,-67.0892,296.83,97,100,0.46,BR,1612492149
568,Bandar-E Lengeh,26.5579,54.8807,290.15,82,0,3.09,IR,1612492149
569,Russell,32.3502,-85.1999,285.15,57,90,4.3,US,1612492149
570,Bitung,1.4451,125.1824,303.15,70,40,2.57,ID,1612492149
571,Sorvag,,,,,,,,
572,Korla,41.7597,86.1469,269.15,80,11,1.76,CN,1612492149
573,Korhogo,9.45,-5.6333,297.47,20,79,0.78,CI,1612492150
574,Warqla,,,,,,,,
575,Dese,11.1333,39.6333,282.36,49,22,0.74,ET,1612492150
576,Biloela,-24.4167,150.5,304.44,31,0,1.38,AU,1612492150
577,Preobrazheniye,42.9019,133.9064,266.29,84,7,3.14,RU,1612492150
578,Cheremukhovo,60.3484,59.9851,259.09,96,100,0.44,RU,1612492150
579,Mwense,-10.3845,28.698,293,85,100,0.85,ZM,1612492150
580,Bintulu,3.1667,113.0333,301.15,83,40,3.09,MY,1612492151
581,Yazykovo,55.2199,56.1353,274.33,98,100,4.21,RU,1612492151
582,Cayenne,4.9333,-52.3333,298.15,94,75,2.57,GF,1612492151
583,Bulgan,48.8125,103.5347,263.94,87,31,3.42,MN,1612492151
584,Virginia Beach,36.8529,-75.978,279.26,65,93,4.22,US,1612492151
585,Hervey Bay,-25.2986,152.8535,304.82,39,32,5.66,AU,1612492151
586,Jalu,29.0331,21.5482,284.58,85,0,2.24,LY,1612492151
587,Nalut,30.3333,10.85,285.47,42,0,5.36,LY,1612492152
588,Sao Filipe,14.8961,-24.4956,295.15,75,100,5.11,CV,1612492152
589,Kita,13.0349,-9.4895,294.97,19,12,1.07,ML,1612492152
590,Rundu,-17.9333,19.7667,294.15,67,99,1.58,NA,1612492152
591,Puerto Leguizamo,-0.1934,-74.7819,296.35,94,99,1.04,CO,1612492152
592,Jizan,17.3333,42.6667,295.15,73,0,4.12,SA,1612492152
593,Jinchang,38.4953,102.1739,275.06,53,0,2.72,CN,1612492152
594,Ibra,22.6906,58.5334,285.08,85,0,0.97,OM,1612492153
595,Tokmak,47.2514,35.7058,279.76,84,100,7.16,UA,1612492153
596,Harmanli,41.9333,25.9,282.04,94,9,1.22,BG,1612492153
597,Imperia,43.9667,7.7833,286.48,82,40,5.14,IT,1612492153
598,Huilong,31.8111,121.655,282.59,75,100,1.34,CN,1612492153
599,Campbell River,50.0163,-125.2446,278.15,100,90,1.54,CA,1612492153
600,Kurilsk,45.2333,147.8833,263.17,91,100,11.27,RU,1612492153
601,Talnakh,69.4865,88.3972,242.62,86,100,0.43,RU,1612492154
602,Lolua,,,,,,,,
603,Lumberton,34.6182,-79.0086,281.15,61,1,3.09,US,1612492154
604,Kurumkan,54.3,110.3,256.4,85,100,0.91,RU,1612492154
605,Zarate,-34.0981,-59.0286,292.04,83,0,1.94,AR,1612492154
606,Tabas,33.5959,56.9244,277.15,28,0,3.09,IR,1612492154
607,Negele,,,,,,,,
608,Yangambi,0.8102,24.4336,295.42,98,100,2.12,CD,1612492155
609,Ust-Ishim,57.6935,71.1665,262.35,95,100,3.32,RU,1612492155
610,Arnedo,42.2167,-2.1,283.15,100,40,2.57,ES,1612492155
611,Andros Town,24.7,-77.7667,286.15,82,0,0.51,BS,1612491911
612,Kieta,-6.2167,155.6333,303.12,67,66,3.02,PG,1612492155
613,Omboue,-1.5746,9.2618,298.88,86,100,1.21,GA,1612492155
614,Angol,-37.8,-72.7167,296.43,37,0,1.06,CL,1612492155
615,Poum,-20.2333,164.0167,300.06,81,6,5.81,NC,1612492156
616,Tacna,-18.0056,-70.2483,294.15,73,0,1.54,PE,1612492156
617,Yantzaza,-3.8278,-78.7594,293.87,84,100,0.44,EC,1612492156
618,Matagami,49.7502,-77.6328,269.15,74,90,4.63,CA,1612492156
619,Pangody,65.85,74.4859,242.45,87,91,2.62,RU,1612492156
620,Lawton,34.6087,-98.3903,279.15,42,1,2.06,US,1612492156
621,Sorong,-0.8833,131.25,301.95,68,100,2.28,ID,1612491924
622,Bourg-Les-Valence,44.956,4.9102,284.15,82,90,4.63,FR,1612492156
623,Innisfail,-17.5333,146.0333,302.81,64,91,3.34,AU,1612492157
624,Ovalle,-30.5983,-71.2003,288.47,79,0,0.99,CL,1612492157
625,Mions,45.6643,4.9499,284.15,100,100,1.03,FR,1612492157
626,Glenwood Springs,39.5505,-107.3248,269.26,85,90,4.12,US,1612491879
627,Mutsamudu,,,,,,,,
628,Valparaiso,-33.0393,-71.6273,290.37,78,68,1.25,CL,1612492157
