,City,Lat,Long,Max Temp,Humidity,Cloudiness,Wind Speed,Country,Date
0,east london,-33.0153,27.9116,295.78,74,88,2.65,ZA,1612490148
1,viedma,-40.8135,-62.9967,297.04,39,0,7.12,AR,1612490149
2,atuona,-9.8,-139.0333,299.19,72,4,4.74,PF,1612489888
3,taolanaro,,,,,,,,
4,lebu,-37.6167,-73.65,289.3,79,0,1.09,CL,1612489915
5,klimovo,52.3805,32.1923,262.52,95,100,7.69,RU,1612490149
6,kodiak,57.79,-152.4072,272.15,80,1,2.06,US,1612490149
7,concordia,-31.393,-58.0209,294.82,74,0,1.79,AR,1612489854
8,kapaa,22.0752,-159.319,293.15,64,90,4.12,US,1612489908
9,qaanaaq,77.484,-69.3632,244.24,61,56,3.53,GL,1612490150
10,mataura,-46.1927,168.8643,296.57,41,99,0.95,NZ,1612490150
11,bathsheba,13.2167,-59.5167,299.15,65,20,8.23,BB,1612490150
12,bluff,-46.6,168.3333,287.75,71,100,4.86,NZ,1612490150
13,broome,42.2506,-75.833,272.15,59,1,1.54,US,1612490150
14,tuktoyaktuk,69.4541,-133.0374,236.15,67,40,4.63,CA,1612489891
15,clyde river,70.4692,-68.5914,244.15,76,90,7.72,CA,1612490016
16,hamilton,39.1834,-84.5333,275.93,80,90,8.23,US,1612490014
17,nouadhibou,20.931,-17.0347,291.15,88,11,3.6,MR,1612490151
18,rocha,-34.4833,-54.3333,292.07,72,100,7.23,UY,1612490151
19,mentok,,,,,,,,
20,ushuaia,-54.8,-68.3,281.15,81,20,15.43,AR,1612490151
21,hobart,-42.8794,147.3294,300.93,73,75,7.2,AU,1612490007
22,avarua,-21.2078,-159.775,302.15,70,75,1.54,CK,1612489876
23,vernon,50.2581,-119.2691,274.82,86,98,3.09,CA,1612489889
24,victoria,22.2855,114.1577,293.71,74,44,1.34,HK,1612489895
25,rikitea,-23.1203,-134.9692,299.08,68,100,5.08,PF,1612490153
26,puerto ayora,-0.7393,-90.3518,298.15,94,18,1.34,EC,1612489907
27,dikson,73.5069,80.5464,250.86,91,100,4.91,RU,1612490154
28,bredasdorp,-34.5322,20.0403,290.15,88,4,1.54,ZA,1612490154
29,arraial do cabo,-22.9661,-42.0278,298.31,83,27,12.52,BR,1612490150
30,college,64.8569,-147.8028,248.15,69,20,0.79,US,1612490155
31,hermanus,-34.4187,19.2345,290.93,91,5,3.53,ZA,1612489893
32,margate,51.3813,1.3862,281.48,89,9,0.89,GB,1612490155
33,barrow,71.2906,-156.7887,239.15,68,40,4.12,US,1612489977
34,solnechnyy,50.7214,136.6319,249.3,82,79,1.98,RU,1612490156
35,siocon,7.7061,122.1353,302.56,67,100,3.65,PH,1612490156
36,punta arenas,-53.15,-70.9167,283.15,62,20,8.75,CL,1612489925
37,inhambane,-23.865,35.3833,299.82,85,32,1.43,MZ,1612490156
38,barentsburg,,,,,,,,
39,gazni,,,,,,,,
40,avera,33.194,-82.5271,283.15,43,1,2.06,US,1612490156
41,busselton,-33.65,115.3333,292.04,40,2,0.89,AU,1612490157
42,provideniya,64.3833,-173.3,252.42,89,100,12.16,RU,1612490157
43,butaritari,3.0707,172.7902,299.92,84,98,6.06,KI,1612489906
44,comodoro rivadavia,-45.8667,-67.5,296.15,56,0,1.03,AR,1612490157
45,cabo san lucas,22.8909,-109.9124,299.15,29,40,4.37,MX,1612490042
46,chokurdakh,70.6333,147.9167,247.31,86,96,9.03,RU,1612490157
47,ngukurr,,,,,,,,
48,north bend,43.4065,-124.2243,282.15,81,1,6.17,US,1612490158
49,grandview,38.8858,-94.533,272.04,74,1,4.63,US,1612490158
50,lata,40.1629,-8.3327,283.71,87,100,1.14,PT,1612490158
51,nikolskoye,59.7035,30.7861,259.82,85,75,4,RU,1612490158
52,guerrero negro,27.9769,-114.0611,289.17,69,100,7.54,MX,1612490158
53,illoqqortoormiut,,,,,,,,
54,camacha,33.0833,-16.3333,285.15,71,75,5.66,PT,1612490158
55,airai,-8.9266,125.4092,292.24,98,98,2.28,TL,1612489928
56,rio gallegos,-51.6226,-69.2181,288.15,44,0,9.26,AR,1612489883
57,tarudant,,,,,,,,
58,new norfolk,-42.7826,147.0587,300.93,55,100,1.34,AU,1612489898
59,luderitz,-26.6481,15.1594,292.51,61,0,7.55,NA,1612490159
60,eirunepe,-6.6603,-69.8736,297.17,94,100,0.86,BR,1612490159
61,samarai,-10.6167,150.6667,302.01,71,36,1.82,PG,1612490159
62,hilo,19.7297,-155.09,296.15,68,90,6.17,US,1612490159
63,severo-kurilsk,50.6789,156.125,262.92,85,86,4.39,RU,1612489907
64,port keats,-14.25,129.55,300.07,78,100,4.44,AU,1612490160
65,acarau,-2.8856,-40.12,298.78,82,94,5.5,BR,1612490160
66,touros,-5.1989,-35.4608,299.15,78,0,4.63,BR,1612490160
67,nhulunbuy,-12.2333,136.7667,302.15,74,75,4.12,AU,1612490117
68,upernavik,72.7868,-56.1549,252.28,70,99,2.51,GL,1612490160
69,kuryk,43.2,51.65,281.06,84,100,6.98,KZ,1612490161
70,esperance,-33.8667,121.9,290.15,51,90,5.66,AU,1612490161
71,saskylakh,71.9167,114.0833,234.89,77,47,1.17,RU,1612489888
72,los llanos de aridane,28.6585,-17.9182,289.15,44,20,2.06,ES,1612489906
73,souillac,-20.5167,57.5167,298.15,78,20,2.57,MU,1612490161
74,khatanga,71.9667,102.5,238.25,78,0,4.28,RU,1612490161
75,namibe,-15.1961,12.1522,294.62,72,0,2.96,AO,1612490161
76,pulsano,40.3821,17.3564,286.48,81,100,0.45,IT,1612490162
77,cradock,-32.1642,25.6192,291.45,83,12,1.14,ZA,1612490162
78,kapit,2.0167,112.9333,301.17,76,99,0.24,MY,1612490162
79,rockland,41.1668,-74.0496,272.59,84,0,0.45,US,1612490099
80,sao filipe,14.8961,-24.4956,295.15,75,100,5.11,CV,1612490162
81,laguna,38.421,-121.4238,289.15,31,1,3.09,US,1612490096
82,medak,18.0333,78.2667,289.82,94,43,2.77,IN,1612490162
83,fort saint john,,,,,,,,
84,manuk mangkaw,4.8,119.85,299.56,83,100,3.57,PH,1612490163
85,seoul,37.5683,126.9778,274.15,69,0,3.09,KR,1612489521
86,priiskovyy,51.9333,116.6333,250.74,88,89,0.91,RU,1612490163
87,peniche,39.3558,-9.3811,283.71,89,99,2.99,PT,1612490163
88,moba,33.2288,105.0179,275.94,65,0,1.75,CN,1612490163
89,saint-philippe,-21.3585,55.7679,299.15,73,90,2.57,RE,1612490163
90,kudahuvadhoo,2.6708,72.8944,300.64,75,100,7.72,MV,1612490163
91,bambous virieux,-20.3428,57.7575,298.71,78,20,2.57,MU,1612490164
92,carnarvon,-24.8667,113.6333,299.15,76,90,7.72,AU,1612490164
93,vaini,-21.2,-175.2,301.15,89,90,3.6,TO,1612490164
94,kurumkan,54.3,110.3,256.4,85,100,0.91,RU,1612490164
95,emerald,-23.5333,148.1667,304.26,51,90,3.6,AU,1612490164
96,petropavlovsk-kamchatskiy,53.0452,158.6483,263.15,44,20,2,RU,1612490164
97,vaitupu,,,,,,,,
98,kimbe,-5.5502,150.1429,298.8,86,100,0.59,PG,1612490165
99,itacoatiara,-3.1431,-58.4442,298.24,85,82,0.21,BR,1612490165
100,kununurra,-15.7667,128.7333,305.15,70,40,4.63,AU,1612490165
101,geraldton,-28.7667,114.6,299.15,29,100,10.8,AU,1612489946
102,kedrovyy,56.1667,91.8167,256.15,85,0,1,RU,1612490165
103,codrington,-38.2667,141.9667,290.55,58,52,4.66,AU,1612490165
104,berlevag,70.8578,29.0864,270.79,90,100,7.32,NO,1612490165
105,poplar bluff,36.757,-90.3929,276.48,70,40,9.26,US,1612490166
106,port alfred,-33.5906,26.891,292.04,89,41,3.43,ZA,1612490166
107,jamestown,42.097,-79.2353,275.37,44,1,5.66,US,1612490166
108,teahupoo,-17.8333,-149.2667,301.15,65,20,1.03,PF,1612490166
109,sitka,57.0531,-135.33,276.15,93,20,8.75,US,1612490144
110,boa vista,2.8197,-60.6733,299.15,89,75,2.06,BR,1612490166
111,buarcos,40.166,-8.8768,283.71,100,20,1.54,PT,1612490166
112,port elizabeth,-33.918,25.5701,290.15,88,0,2.66,ZA,1612490132
113,ponta do sol,32.6667,-17.1,282.59,67,83,1.34,PT,1612490167
114,gamba,-2.65,10,298.81,88,100,0.89,GA,1612490167
115,saint-augustin,51.226,-58.6502,274.57,96,100,5.78,CA,1612490167
116,saint george,37.1041,-113.5841,283.15,27,1,3.6,US,1612490167
117,awjilah,29.1081,21.2869,284.36,86,0,1.9,LY,1612490167
118,sabang,5.8933,95.3214,300.61,76,12,10.47,ID,1612490167
119,kahului,20.8947,-156.47,295.15,68,90,5.66,US,1612489904
120,vao,-22.6667,167.4833,299.16,87,0,8.16,NC,1612489904
121,broken hill,-31.95,141.4333,294.15,35,40,3.6,AU,1612490168
122,norman wells,65.282,-126.8329,231.15,66,75,1.03,CA,1612490168
123,marathon,44.9,-89.7668,269.15,80,90,6.69,US,1612490168
124,tiksi,71.6872,128.8694,244.26,88,100,3.26,RU,1612490168
125,tuatapere,-46.1333,167.6833,292.57,53,88,2.85,NZ,1612490168
126,garango,11.8,-0.5506,297.36,18,38,4.7,BF,1612490169
127,san patricio,28.017,-97.5169,294.15,78,20,7.2,US,1612490169
128,gigmoto,13.7796,124.39,298.93,85,93,6.92,PH,1612490169
129,bundaberg,-24.85,152.35,304.26,48,0,4.63,AU,1612489993
130,port-cartier,50.0334,-66.8654,271.15,86,90,2.06,CA,1612490169
131,trofors,65.5333,13.4063,267.15,86,0,2.57,NO,1612490169
132,ribeira grande,38.5167,-28.7,286.2,69,43,8.69,PT,1612489912
133,san ramon,37.7799,-121.978,287.15,35,1,3.6,US,1612490170
134,vostok,46.4856,135.8833,252.55,85,3,2.53,RU,1612490170
135,belushya guba,,,,,,,,
136,paamiut,61.994,-49.6678,265.38,74,0,2.33,GL,1612490170
137,eyl,7.9803,49.8164,293.21,80,5,5.69,SO,1612490170
138,gorontalo,0.5412,123.0595,304.39,58,100,0.8,ID,1612490014
139,aracati,-4.5617,-37.7697,299.85,78,94,5.06,BR,1612490171
140,pangnirtung,66.1451,-65.7125,260.17,90,100,1.19,CA,1612489971
141,albany,42.6001,-73.9662,271.15,69,20,1.19,US,1612490171
142,hithadhoo,-0.6,73.0833,301.13,76,100,4.78,MV,1612489898
143,kaitangata,-46.2817,169.8464,288.71,71,67,5.36,NZ,1612490171
144,namatanai,-3.6667,152.4333,302.86,68,14,2.12,PG,1612490171
145,bilibino,68.0546,166.4372,247.41,79,100,4.61,RU,1612490171
146,campobello di mazara,37.6358,12.7443,287.15,82,0,9.26,IT,1612490171
147,saldanha,-33.0117,17.9442,289.15,82,0,3.6,ZA,1612490172
148,sumbe,-11.2061,13.8437,297.06,85,64,1.49,AO,1612490172
149,macaboboni,,,,,,,,
150,altay,47.8667,88.1167,264.56,88,81,0.95,CN,1612490172
151,kenai,60.5544,-151.2583,265.93,79,90,3.6,US,1612490172
152,tasiilaq,65.6145,-37.6368,270.15,80,75,4.63,GL,1612490172
153,tasbuget,,,,,,,,
154,havre-saint-pierre,50.2334,-63.5986,273.15,100,90,2.06,CA,1612490172
155,bur gabo,,,,,,,,
156,talnakh,69.4865,88.3972,242.62,86,100,0.43,RU,1612490173
157,fairbanks,64.8378,-147.7164,248.15,70,20,0.56,US,1612489922
158,narsaq,60.9167,-46.05,263.15,52,86,2.06,GL,1612490173
159,kesan,40.8558,26.6303,283.01,85,2,0.84,TR,1612490173
160,kloulklubed,7.0419,134.2556,301.15,78,75,4.63,PW,1612490173
161,ruteng,-8.6136,120.4721,295.22,89,97,1.42,ID,1612490173
162,faanui,-16.4833,-151.75,300.79,67,16,3,PF,1612490174
163,itarema,-2.9248,-39.9167,298.95,81,88,5.18,BR,1612490174
164,kashi,39.4547,75.9797,271.15,59,0,4,CN,1612490174
165,nizhneyansk,,,,,,,,
166,dunedin,-45.8742,170.5036,286.48,69,84,10.73,NZ,1612489974
167,rungata,,,,,,,,
168,sale,34.0389,-6.8166,286.15,94,75,2.57,MA,1612490174
169,mount gambier,-37.8333,140.7667,291.15,59,40,7.72,AU,1612490175
170,gat,31.61,34.7642,286.48,100,100,0.45,IL,1612490102
171,bethel,41.3712,-73.414,270.93,80,1,0.94,US,1612489971
172,pevek,69.7008,170.3133,247.82,78,72,2.38,RU,1612490175
173,chenghai,23.4632,116.768,290.15,77,0,1,CN,1612490175
174,toliary,,,,,,,,
175,tazovskiy,67.4667,78.7,241.8,87,100,3.4,RU,1612490175
176,cape town,-33.9258,18.4232,292.59,82,0,4.63,ZA,1612489623
177,lincoln,40.8,-96.667,268.71,63,1,1.54,US,1612490176
178,pokrovsk-uralskiy,,,,,,,,
179,thompson,55.7435,-97.8558,250.15,77,90,3.6,CA,1612489897
180,lavrentiya,65.5833,-171,251.11,89,100,8.5,RU,1612490176
181,kaeo,-35.1,173.7833,294.68,64,99,2.51,NZ,1612490176
182,mahebourg,-20.4081,57.7,298.15,78,20,2.57,MU,1612490176
183,tura,25.5198,90.2201,291.23,53,0,1.09,IN,1612490176
184,hambantota,6.1241,81.1185,294.15,100,40,1.54,LK,1612490177
185,havoysund,70.9963,24.6622,272.15,80,75,6.17,NO,1612490177
186,karauzyak,,,,,,,,
187,kongolo,-5.3833,27,293.83,91,3,0.38,CD,1612490177
188,alta floresta,-9.8756,-56.0861,296.15,94,100,0.89,BR,1612490177
189,castro,-24.7911,-50.0119,291.54,95,0,1.95,BR,1612490177
190,salalah,17.0151,54.0924,294.15,73,40,2.06,OM,1612489923
191,bekhtery,46.251,32.2927,275.87,79,89,10.83,UA,1612490177
192,yellowknife,62.456,-114.3525,239.26,75,1,3.09,CA,1612490178
193,kavieng,-2.5744,150.7967,301.72,75,90,1.95,PG,1612490178
194,kodinsk,58.6881,99.1844,256.93,93,100,2.03,RU,1612490178
195,zhanaozen,43.3,52.8,279.17,72,100,6.05,KZ,1612490178
196,sataua,,,,,,,,
197,ulety,51.3572,112.4849,262.05,90,100,3.15,RU,1612490178
198,tucurui,-3.7661,-49.6725,297.52,86,29,2.19,BR,1612490178
199,edd,13.9297,41.6925,298.23,25,0,6.48,ER,1612490179
200,mandera,3.9366,41.867,294.62,80,0,3.64,KE,1612490179
201,ambilobe,-13.2,49.05,296.26,93,85,0.85,MG,1612490179
202,kieta,-6.2167,155.6333,303.12,67,66,3.02,PG,1612490179
203,georgetown,5.4112,100.3354,300.15,69,20,3.19,MY,1612489956
204,talcahuano,-36.7167,-73.1167,288.15,94,90,4.63,CL,1612490179
205,gushikawa,26.3544,127.8686,292.15,82,40,2.06,JP,1612490179
206,srednekolymsk,67.45,153.6833,251.29,83,100,7.46,RU,1612490180
207,hondo,32.45,130.2,280.15,81,75,3.09,JP,1612490180
208,aklavik,68.2191,-135.0107,233.15,67,75,1.54,CA,1612490180
209,vila velha,-20.3297,-40.2925,299.26,78,20,4.63,BR,1612490180
210,ondjiva,-17.0667,15.7333,295.35,50,99,2.02,AO,1612490180
211,westpunt,,,,,,,,
212,isangel,-19.55,169.2667,303.15,70,75,2.57,VU,1612489978
213,tautira,-17.7333,-149.15,301.15,65,20,1.03,PF,1612489927
214,mandalgovi,45.7625,106.2708,265.57,85,0,3.53,MN,1612490058
215,baculin,7.4525,126.5842,300.94,76,49,3.09,PH,1612490181
216,chapeco,-27.0964,-52.6183,292.15,77,20,0.71,BR,1612490181
217,nemuro,43.3236,145.575,264.15,62,40,4.63,JP,1612490181
218,jiayuguan,39.8167,98.3,271.45,60,1,1.48,CN,1612490181
219,mar del plata,-38.0023,-57.5575,291.48,72,20,4.12,AR,1612489964
220,nome,64.5011,-165.4064,260.37,72,90,7.2,US,1612490181
221,buala,-8.145,159.5921,303.13,68,2,3.77,SB,1612490182
222,rabo de peixe,37.8,-25.5833,285.37,71,40,4.63,PT,1612490182
223,khirkiya,22.1674,76.8605,289.66,37,0,1.02,IN,1612490182
224,vestmannaeyjar,63.4427,-20.2734,277.49,72,100,13.45,IS,1612490182
225,hofn,64.2539,-15.2082,275.54,79,100,6.79,IS,1612490182
226,san jose,37.3394,-121.895,288.15,31,40,4.63,US,1612489447
227,lakes entrance,-37.8811,147.981,300.93,57,63,0.89,AU,1612489998
228,husavik,66.0449,-17.3389,270.15,63,0,4.12,IS,1612489964
229,leningradskiy,69.3833,178.4167,240.41,84,100,4.91,RU,1612490183
230,piotrkow trybunalski,51.4055,19.7032,271.15,69,0,2.57,PL,1612490183
231,zhigansk,66.7697,123.3711,232.24,76,0,5.32,RU,1612490183
232,zyryanka,65.75,150.85,249.68,89,100,10.19,RU,1612489932
233,yuksekova,37.5736,44.2872,275.15,93,75,2.06,TR,1612490183
234,tsihombe,,,,,,,,
235,belyy yar,53.6039,91.3903,260.15,85,100,0.84,RU,1612490184
236,lyantonde,-0.4031,31.1572,292.57,82,100,1.55,UG,1612490184
237,kuche,,,,,,,,
238,yulara,-25.2406,130.9889,295.15,53,90,4.63,AU,1612490184
239,sentyabrskiy,,,,,,,,
240,tessalit,20.1986,1.0114,292.73,22,69,7.29,ML,1612490184
241,puerto escondido,15.85,-97.0667,300.15,69,75,1.6,MX,1612490184
242,ust-nera,64.5667,143.2,245.16,79,98,3.19,RU,1612490184
243,khetri,27.9833,75.8,281,93,0,0.82,IN,1612490185
244,biak,-0.9131,122.8766,300.47,73,100,0.64,ID,1612490185
245,lagoa,39.05,-27.9833,285.51,73,71,9.5,PT,1612490185
246,presidencia roque saenz pena,-26.7852,-60.4388,295.93,73,0,0.45,AR,1612490185
247,dongsheng,39.8161,109.9776,271.65,78,0,11.41,CN,1612490185
248,moron,-34.6534,-58.6198,297.59,57,0,1.48,AR,1612490185
249,te anau,-45.4167,167.7167,296.69,37,42,0.93,NZ,1612490185
250,grand river south east,,,,,,,,
251,fort frances,48.5999,-93.4003,258.15,78,90,9.26,CA,1612490186
252,pasni,25.2631,63.471,292.1,28,0,3.49,PK,1612490186
253,stonewall,50.1344,-97.3268,257.15,78,90,8.23,CA,1612490186
254,tecoanapa,16.5167,-98.75,298.39,79,8,2.49,MX,1612490186
255,omaruru,-21.4333,15.9333,294.03,50,35,1.63,NA,1612490186
256,thinadhoo,0.5333,72.9333,301.05,78,100,5.7,MV,1612490186
257,fortuna,40.5982,-124.1573,283.15,76,1,5.14,US,1612490187
258,sorland,67.667,12.6934,275.85,78,100,8.69,NO,1612490187
259,san policarpo,12.1791,125.5072,300.6,85,96,7.82,PH,1612490187
260,chuy,-33.6971,-53.4616,292.13,81,100,6.24,UY,1612490187
261,makakilo city,21.3469,-158.0858,297.15,53,20,6.17,US,1612490187
262,diamantina,-18.2494,-43.6003,290.98,92,62,0.81,BR,1612490187
263,kavaratti,10.5669,72.642,300.35,76,39,5.96,IN,1612490187
264,nokaneng,-19.6667,22.2667,293.91,91,99,2.12,BW,1612490188
265,tigil,57.8,158.6667,258.54,91,84,1.32,RU,1612490188
266,elko,41.0002,-115.5012,274.15,51,1,3.09,US,1612490188
267,ruatoria,,,,,,,,
268,nuuk,64.1835,-51.7216,263.15,67,40,9.26,GL,1612490188
269,itaituba,-4.2761,-55.9836,299.52,73,60,0.54,BR,1612490188
270,cukai,4.25,103.4167,298.15,88,40,2.06,MY,1612490188
271,grindavik,63.8424,-22.4338,276.15,87,75,12.86,IS,1612489923
272,solano,38.2333,-121.9511,290.15,27,1,5.14,US,1612490189
273,opuwo,-18.0607,13.84,294.5,33,25,1.43,NA,1612489967
274,meulaboh,4.1363,96.1285,299.62,75,33,1.83,ID,1612490189
275,utiroa,,,,,,,,
276,lanaken,50.8943,5.6501,280.93,87,100,2.06,BE,1612490189
277,cherskiy,68.75,161.3,251.89,77,98,4.06,RU,1612490189
278,batemans bay,-35.7167,150.1833,297.04,86,46,7.15,AU,1612490190
279,naze,28.3667,129.4833,292.15,55,20,2.57,JP,1612489929
280,samusu,,,,,,,,
281,ipora,-16.4419,-51.1178,295.5,86,87,0.57,BR,1612490190
282,huarmey,-10.0681,-78.1522,294.42,77,87,2.44,PE,1612490190
283,severodvinsk,64.5635,39.8302,258.15,72,40,4,RU,1612490190
284,mungwi,-10.1732,31.3694,289.19,98,75,0.66,ZM,1612490190
285,novoagansk,61.9449,76.6625,246.32,89,25,1.22,RU,1612490191
286,hami,42.8,93.45,271.13,85,0,1.23,CN,1612490122
287,sivas,39.7916,37.0019,270.15,100,40,5.14,TR,1612490191
288,saint anthony,45.0205,-93.218,263.15,67,1,9.26,US,1612490191
289,whitehorse,60.7161,-135.0538,252.59,71,20,1.54,CA,1612490186
290,roald,62.5833,6.1333,268.15,58,18,4.63,NO,1612490191
291,amderma,,,,,,,,
292,brooks,50.5834,-111.8851,268.15,86,91,3.6,CA,1612490069
293,marzuq,14.4,46.4667,285.64,63,0,1.6,YE,1612490192
294,zambezi,-13.5432,23.1047,291.9,94,100,0.73,ZM,1612490192
295,benguela,-12.5763,13.4055,295.74,84,35,0.61,AO,1612490192
296,caravelas,-17.7125,-39.2481,298.24,82,0,3.4,BR,1612489900
297,tocopilla,-22.092,-70.1979,292.98,61,48,0.24,CL,1612490192
298,hlotse,-28.8718,28.045,286.32,92,0,0.86,LS,1612489982
299,mana,5.6592,-53.7767,298.16,81,31,5.76,GF,1612490192
300,buchanan,5.8808,-10.0467,299.2,89,35,2.99,LR,1612490193
301,shingu,33.7333,135.9833,282.15,43,40,5.14,JP,1612490193
302,cidreira,-30.1811,-50.2056,293.46,76,20,7.28,BR,1612490193
303,westport,41.1415,-73.3579,275.15,75,1,2.06,US,1612490077
304,fort saint james,54.4333,-124.25,265.1,96,100,0.99,CA,1612490193
305,mount isa,-20.7333,139.5,308.15,41,75,7.72,AU,1612490085
306,vyartsilya,62.1764,30.693,257.66,92,97,3.88,RU,1612490193
307,koraput,18.8167,82.7167,288,46,0,0.97,IN,1612490194
308,bairiki,1.3292,172.9752,303.15,66,20,6.17,KI,1612490194
309,blythe,33.6103,-114.5964,293.15,13,1,6.69,US,1612490194
310,kruisfontein,-34.0033,24.7314,290.37,94,0,1.42,ZA,1612490194
311,guangyuan,32.442,105.823,277.59,61,0,2,CN,1612490194
312,pisco,-13.7,-76.2167,295.37,78,0,6.69,PE,1612490032
313,moyale,3.5167,39.0584,293.14,39,0,3.88,KE,1612490194
314,bama,11.5221,13.6856,291.75,31,0,3.49,NG,1612490194
315,imbituba,-28.24,-48.6703,295.15,88,40,5.14,BR,1612489951
316,karratha,-20.7377,116.8463,302.43,70,40,6.17,AU,1612490195
317,pangody,65.85,74.4859,242.45,87,91,2.62,RU,1612490195
318,umzimvubu,,,,,,,,
319,barabinsk,55.3571,78.357,258.25,93,100,2.37,RU,1612490195
320,cumaribo,,,,,,,,
321,hengshan,45.2,130.9167,258.85,91,99,0.53,CN,1612490195
322,anastacio,-20.4836,-55.8069,296.38,86,92,1.96,BR,1612490196
323,bolshaya irba,,,,,,,,
324,rapid valley,44.0625,-103.1463,273.15,43,90,6.17,US,1612490196
325,mehran,33.1222,46.1646,280.15,81,90,1.03,IR,1612490196
326,santa rosa del sur,7.9644,-74.0544,297.25,72,51,1.58,CO,1612490196
327,northam,51.0333,-4.2167,279.26,95,23,2.68,GB,1612490196
328,martapura,-3.4167,114.85,299.15,89,40,2.06,ID,1612489936
329,mayo,38.8876,-76.5119,276.48,60,1,3.68,US,1612490197
330,acajutla,13.5928,-89.8275,297,68,10,1.71,SV,1612490197
331,maturin,9.75,-63.1767,295.44,90,70,2.5,VE,1612490197
332,abu zabad,12.35,29.25,290.98,28,0,8.3,SD,1612490197
333,aflu,,,,,,,,
334,kabwe,-14.4469,28.4464,290.48,97,63,1.63,ZM,1612490197
335,rawson,-43.3002,-65.1023,302.97,19,0,10.45,AR,1612490197
336,butembo,0.15,29.2833,288.68,84,100,1.29,CD,1612490197
337,torbay,47.6666,-52.7314,277.59,100,90,6.17,CA,1612489922
338,necochea,-38.5473,-58.7368,286.48,91,0,2.13,AR,1612489911
339,cap-aux-meules,47.3821,-61.8597,272.15,100,100,5.14,CA,1612490198
340,haines junction,60.7522,-137.5108,245.15,76,30,0.26,CA,1612490198
341,balikpapan,-1.2675,116.8289,301.15,89,20,3.09,ID,1612490148
342,sembe,1.6481,14.5806,295.67,82,84,0.71,CG,1612490198
343,isilkul,54.9109,71.2728,267.2,98,100,3.9,RU,1612490198
344,hamza,40.4264,71.4956,272.15,69,53,4.12,UZ,1612490199
345,redmond,47.674,-122.1215,280.93,95,100,2.43,US,1612490165
346,manzil jamil,,,,,,,,
347,longyearbyen,78.2186,15.6401,265.15,67,75,5.14,SJ,1612490199
348,ilulissat,69.2167,-51.1,256.15,35,20,4.12,GL,1612490199
349,nantucket,41.2835,-70.0995,275.15,75,90,3.09,US,1612490057
350,harper,4.375,-7.7169,299.05,90,58,3.8,LR,1612490199
351,luganville,-15.5333,167.1667,302.24,67,100,3,VU,1612490199
352,olinda,-8.0089,-34.8553,299.15,69,40,3.6,BR,1612490200
353,el cope,8.6167,-80.6,299.15,73,20,3.09,PA,1612490200
354,popondetta,-8.7537,148.2534,302.77,76,100,2.39,PG,1612490200
355,delta del tigre,-34.7633,-56.3853,293.15,68,75,7.72,UY,1612490200
356,puerto del rosario,28.5004,-13.8627,288.15,67,20,5.14,ES,1612490063
357,barsesti,,,,,,,,
358,tongren,27.7172,109.1853,282.51,88,100,0.76,CN,1612490200
359,mokhsogollokh,61.4681,128.9203,238.63,82,94,1.31,RU,1612490200
360,tilichiki,60.4667,166.1,253.91,93,87,6.62,RU,1612490201
361,santa rosa,14.3122,121.1114,303.15,61,40,1.03,PH,1612490201
362,san cristobal,7.7669,-72.225,301.15,65,40,1.03,VE,1612489994
363,yumen,40.2833,97.2,272.75,60,0,7.91,CN,1612490201
364,nadym,65.5333,72.5167,240.53,86,7,1.94,RU,1612490201
365,bo,,,,,,,,
366,egvekinot,66.3167,-179.1667,244.73,90,100,7.79,RU,1612490201
367,waingapu,-9.6567,120.2641,300.41,80,86,4.32,ID,1612490202
368,dudinka,69.4058,86.1778,237.66,84,100,1.41,RU,1612490202
369,chigorodo,7.6664,-76.6811,297.82,85,43,2.68,CO,1612490202
370,ushtobe,45.2514,77.9838,270,90,100,0.52,KZ,1612490202
371,kidal,18.4411,1.4078,292.49,22,58,5.38,ML,1612490202
372,neuquen,-38.9516,-68.0591,298.15,50,0,3.26,AR,1612489964
373,adrar,20.5022,-10.0711,292.73,22,4,3.07,MR,1612490202
374,prince rupert,54.3161,-130.3201,277.15,100,90,1.54,CA,1612490198
375,chernyshevskiy,63.0128,112.4714,236.61,85,98,1.38,RU,1612490203
376,waipawa,-41.4122,175.5153,288.15,77,90,8.23,NZ,1612490203
377,yurimaguas,-5.9,-76.0833,296.71,96,100,0.65,PE,1612490203
378,kurilsk,45.2333,147.8833,263.17,91,100,11.27,RU,1612490203
379,kharabali,47.4196,47.2568,276.85,96,99,5.32,RU,1612490203
380,thouars,46.976,-0.2151,283.15,1,100,2.54,FR,1612490203
381,ulaanbaatar,47.9077,106.8832,259.15,78,75,2,MN,1612490204
382,bandarbeyla,9.4942,50.8122,294.62,70,17,4.81,SO,1612490204
383,nabire,-3.3667,135.4833,301.69,78,100,1.54,ID,1612490204
384,tiznit,29.5833,-9.5,283.36,70,85,1.39,MA,1612490204
385,svetlaya,46.5389,138.3297,259.49,79,100,3.53,RU,1612490204
386,trairi,-3.2778,-39.2689,299.03,81,95,4.05,BR,1612490204
387,samalaeulu,,,,,,,,
388,hasaki,35.7333,140.8333,281.15,36,20,5.14,JP,1612490205
389,vieste,41.8825,16.175,281.15,100,90,2.57,IT,1612490205
390,fort nelson,58.8053,-122.7002,248.15,70,90,1.54,CA,1612490205
391,ambagarh chauki,20.7833,80.7167,287.83,33,8,1.8,IN,1612490205
392,sandwick,60,-1.25,275.15,55,90,7.72,GB,1612490205
393,palmer,42.1584,-72.3287,268.15,93,20,1.29,US,1612490205
394,derzhavinsk,51.1,66.3167,272,98,100,5.11,KZ,1612490205
395,acapulco,16.8634,-99.8901,300.15,78,75,3.09,MX,1612490206
396,mariel,22.9875,-82.7536,291.15,72,20,1.54,CU,1612490206
397,marcona,,,,,,,,
398,doha,25.2867,51.5333,291.15,94,0,1.03,QA,1612490201
399,gimli,50.6336,-96.9907,256.15,78,100,5.14,CA,1612489971
400,korla,41.7597,86.1469,269.17,79,34,1.91,CN,1612490206
401,yuanping,38.7153,112.7575,276.05,61,0,0.23,CN,1612490206
402,kouango,4.9934,19.9619,295.97,42,32,1.06,CF,1612490207
403,klaksvik,62.2266,-6.589,274.15,64,20,6.69,FO,1612490207
404,ixtapa,20.7,-105.2,295.15,88,1,3.6,MX,1612490207
405,cairns,-16.9167,145.7667,304.82,70,40,3.09,AU,1612490207
406,the valley,18.217,-63.0578,299.15,78,20,4.12,AI,1612490207
407,abu samrah,35.3029,37.1841,283.61,85,61,5.52,SY,1612490207
408,ulladulla,-35.35,150.4667,301.15,57,75,4.63,AU,1612490207
409,chapais,49.7834,-74.8492,264.15,86,1,2.02,CA,1612490208
410,catamarca,-28.4696,-65.7852,289.82,84,14,2.62,AR,1612490208
411,mwinilunga,-11.7358,24.4293,289.43,95,60,0.18,ZM,1612490208
412,melendugno,40.2747,18.3368,282.15,100,40,1.03,IT,1612490208
413,howard springs,-12.497,131.047,296.15,94,90,3.09,AU,1612489920
414,katsuura,35.1333,140.3,281.15,36,20,1.54,JP,1612490208
415,bonoua,5.2741,-3.595,301.15,94,20,3.6,CI,1612490208
416,cuenca,-2.8833,-78.9833,287.15,94,93,1.54,EC,1612490209
417,pringsewu,-5.3582,104.9744,299.37,81,74,2,ID,1612490209
418,poum,-20.2333,164.0167,300.06,81,6,5.81,NC,1612489951
419,krasnoye,49.9145,24.6134,272.15,86,75,3,UA,1612490209
420,kankan,10.3854,-9.3057,295.83,21,1,0.96,GN,1612490209
421,novomikhaylovskiy,44.2581,38.8578,283.07,89,100,5.53,RU,1612490209
422,gbongan,7.4667,4.35,296.06,94,0,0.62,NG,1612490209
423,merauke,-8.4667,140.3333,300.04,86,100,5.99,ID,1612490106
424,richards bay,-28.783,32.0377,296.46,90,76,3.8,ZA,1612490094
425,strezhevoy,60.7333,77.5889,255.15,85,40,2,RU,1612490210
426,chagda,,,,,,,,
427,hailey,43.5196,-114.3153,271.15,64,1,2.06,US,1612490210
428,cam pha,,,,,,,,
429,ballina,-28.8667,153.5667,300.37,61,40,5.14,AU,1612490079
430,halalo,,,,,,,,
431,labuan,5.2767,115.2417,301.15,78,20,1.03,MY,1612490211
432,nevesinje,43.2586,18.1133,278.15,100,77,2.06,BA,1612490103
433,vangaindrano,-23.35,47.6,297.41,92,22,2.27,MG,1612490211
434,iqaluit,63.7506,-68.5145,263.15,79,90,6.17,CA,1612490211
435,alofi,-19.0595,-169.9187,301.15,83,75,5.14,NU,1612490211
436,sinnamary,5.3833,-52.95,298.28,81,86,6.35,GF,1612490211
437,matara,5.9485,80.5353,296.68,86,31,2.07,LK,1612490211
438,palabuhanratu,,,,,,,,
439,port macquarie,-31.4333,152.9167,303.15,60,7,0.89,AU,1612490163
440,sarangani,5.4033,125.4636,300.8,79,100,8.86,PH,1612490212
441,tumannyy,,,,,,,,
442,nador,35.174,-2.9287,286.15,94,0,3.09,MA,1612490212
443,la ronge,55.1001,-105.2842,255.15,78,100,3.09,CA,1612489991
444,santiago del estero,-27.7951,-64.2615,295.62,45,1,2.13,AR,1612490212
445,ijaki,,,,,,,,
446,grand gaube,-20.0064,57.6608,298.71,75,4,1.34,MU,1612490213
447,saleaula,,,,,,,,
448,najran,17.4924,44.1277,286.15,35,0,1.54,SA,1612490213
449,saint-joseph,-21.3667,55.6167,299.15,73,90,2.57,RE,1612490213
450,fomboni,-12.28,43.7425,301.52,70,100,1.52,KM,1612490213
451,karpogory,64.0019,44.4451,258.12,94,100,4.43,RU,1612490213
452,armeria,18.9333,-103.9667,298.15,73,75,0.33,MX,1612490214
453,jackson,42.4165,-122.8345,278.15,81,0,1.12,US,1612490214
454,attawapiskat,,,,,,,,
455,zeya,53.75,127.2667,246.46,82,88,1.07,RU,1612490214
456,sao joao da barra,-21.6403,-41.0511,298.42,82,0,8.96,BR,1612490092
457,coihaique,-45.5752,-72.0662,294.15,46,0,2.57,CL,1612490214
458,araceli,10.5529,119.9913,300.24,80,100,10.04,PH,1612490214
459,kapoeta,4.7717,33.5903,299.67,29,2,4.18,SS,1612490214
460,junin,-34.5838,-60.9433,289.26,44,0,2.24,AR,1612490126
461,bulgan,48.8125,103.5347,263.94,87,31,3.42,MN,1612490215
462,phalaborwa,-23.943,31.1411,296.15,94,100,1.03,ZA,1612490215
463,kazachinskoye,57.6953,93.2761,258.88,94,98,2.67,RU,1612490215
464,coquimbo,-29.9533,-71.3436,289.15,88,90,3.6,CL,1612490215
465,mount darwin,-16.7725,31.5838,292.66,96,63,1.06,ZW,1612490215
466,trincomalee,8.5711,81.2335,298.65,78,34,5.54,LK,1612490215
467,lovozero,68.005,35.0117,255.57,93,97,1.88,RU,1612490216
468,ahipara,-35.1667,173.1667,293.92,67,100,2.53,NZ,1612490216
469,atasu,48.6814,71.6433,265.35,95,83,3.71,KZ,1612490216
470,plettenberg bay,-34.0527,23.3716,291.39,88,0,0.86,ZA,1612490216
471,taltal,-25.4,-70.4833,291.33,77,42,1.09,CL,1612490216
472,ruwi,23.5996,58.5507,290.15,77,0,1.44,OM,1612490216
473,west helena,34.5507,-90.6418,284.15,87,63,6.69,US,1612490216
474,san antonio,29.4241,-98.4936,296.15,33,1,8.75,US,1612490038
475,sarakhs,36.5449,61.1577,277.15,52,0,1.03,IR,1612489998
476,kuala terengganu,5.3302,103.1408,297.15,94,40,1.54,MY,1612490217
477,tolaga bay,-38.3667,178.3,292,62,48,8.48,NZ,1612490217
478,winnemucca,40.973,-117.7357,276.15,48,1,3.6,US,1612490217
479,saint-leu,-21.15,55.2833,298.15,59,45,1.78,RE,1612490217
480,bongor,10.2806,15.3722,294.13,23,35,3.57,TD,1612490217
481,kawalu,-7.3817,108.2082,300.6,70,100,0.69,ID,1612490217
482,tuy hoa,13.0833,109.3,296.76,84,46,4.63,VN,1612490018
483,falealupo,,,,,,,,
484,goderich,43.7501,-81.7165,273.15,55,100,7.72,CA,1612490218
485,miracema do tocantins,-9.5618,-48.3967,297.25,87,85,0.92,BR,1612490218
486,markova,48.6758,24.4138,271.57,96,93,1.4,UA,1612490218
487,mendahara,,,,,,,,
488,aykhal,66,111.5,235.38,80,12,2.11,RU,1612490218
489,manavgat,36.7867,31.4431,288.15,66,0,3.09,TR,1612490219
490,jiexiu,37.0244,111.9125,279.53,47,45,3.91,CN,1612490219
491,sinop,41.7711,34.8709,280.2,79,51,4.12,TR,1612490219
492,kayankulam,9.1833,76.5,296.14,70,6,3.53,IN,1612490219
493,straumen,63.8709,11.2999,267.59,78,20,4.63,NO,1612490219
494,dasoguz,41.8363,59.9666,273.15,86,100,3.09,TM,1612490219
495,jizan,17.3333,42.6667,296.15,68,0,3.6,SA,1612490219
496,sri aman,1.2376,111.4621,299.15,94,20,2.57,MY,1612490220
497,taoudenni,22.6783,-3.9836,293.14,20,16,2.79,ML,1612490220
498,qui nhon,13.7667,109.2333,296.55,83,8,5.43,VN,1612489930
499,longlac,,,,,,,,
500,sokolac,43.9397,18.8017,275.15,100,96,1.03,BA,1612490220
501,dongning,44.0622,131.1207,260.27,90,100,1.1,CN,1612490220
502,marsa matruh,31.3525,27.2453,288.15,77,75,6.17,EG,1612490220
503,oksfjord,70.2396,22.3479,272.15,74,90,3.09,NO,1612490221
504,pauini,-7.7136,-66.9764,297.13,94,99,0.32,BR,1612490221
505,mao,39.8885,4.2658,283.15,100,0,3.09,ES,1612490221
506,iquique,-20.2208,-70.1431,295.15,68,0,5.14,CL,1612489942
507,carroll,39.5501,-77.0164,275.37,51,1,2.06,US,1612490221
508,casas grandes,30.3667,-107.95,289.26,33,100,3.58,MX,1612490189
509,litoral del san juan,,,,,,,,
510,visby,57.6409,18.296,268.71,74,90,5.66,SE,1612490222
511,asayita,,,,,,,,
512,abu kamal,34.4506,40.9171,284.93,85,96,3.39,SY,1612490222
513,ternate,0.8,127.4,302.17,67,100,0.73,ID,1612490222
514,nanortalik,60.1432,-45.2371,267.27,78,100,3.69,GL,1612490014
515,nioro,13.35,-15.75,295.3,34,96,3.27,GM,1612490222
516,manokwari,-0.8667,134.0833,301.53,72,100,3.12,ID,1612490222
517,alaca,40.1683,34.8425,278.78,70,0,4.17,TR,1612490223
518,eurajoki,61.2,21.7333,259.15,85,0,3.09,FI,1612490223
519,purranque,-40.9167,-73.1667,296.15,43,0,3.6,CL,1612490223
520,vardo,70.3705,31.1107,270.93,90,99,9.05,NO,1612490223
521,russell,32.3502,-85.1999,285.15,57,75,4.3,US,1612490094
522,ngunguru,-35.6167,174.5,293.64,69,100,2.72,NZ,1612490223
523,laplace,30.0666,-90.4801,291.48,72,90,3.6,US,1612490223
524,kashmor,28.4333,69.5833,282.26,66,0,0.31,PK,1612490224
525,roebourne,-20.7833,117.1333,302.81,67,6,5.72,AU,1612490224
526,carauari,-4.8828,-66.8958,297.27,95,100,0.75,BR,1612490224
527,lorengau,-2.0226,147.2712,300.07,80,100,3.38,PG,1612490224
528,kosh-agach,50,88.6667,255.01,87,30,0.61,RU,1612490224
529,sehithwa,-20.4667,22.7167,294.08,90,100,2.12,BW,1612490224
530,hay river,60.8156,-115.7999,243.15,69,68,5.14,CA,1612490134
531,ostrovnoy,68.0531,39.5131,261.94,94,100,8.96,RU,1612490224
532,ermoupolis,37.4423,24.9425,287.15,62,0,0.51,GR,1612490225
533,kibondo,-3.5864,30.7203,289.18,97,88,1.1,TZ,1612489967
534,todos santos,23.45,-110.2167,294.82,79,96,1.59,MX,1612490225
535,tabiauea,,,,,,,,
536,moerai,-22.4333,-151.3333,300.2,74,86,6.66,PF,1612490225
537,villa florida,-26.3833,-57.15,293.26,77,0,2.5,PY,1612490225
538,port blair,11.6667,92.75,300.57,74,4,5.86,IN,1612490226
539,torata,-17.0769,-70.8433,289.27,72,90,1.32,PE,1612490226
540,la rioja,42.25,-2.5,279.15,93,100,0.65,ES,1612490226
541,atar,20.5169,-13.0499,289.65,39,100,3.02,MR,1612490226
542,flinders,-34.5833,150.8552,302.04,70,13,3.13,AU,1612490226
543,saint cloud,45.5608,-94.1625,261.15,66,40,7.72,US,1612490199
544,praia,14.9215,-23.5087,294.15,73,75,8.75,CV,1612490226
545,buin,-33.7333,-70.75,295.93,64,0,6.17,CL,1612490227
546,mirina,,,,,,,,
547,vila franca do campo,37.7167,-25.4333,285.37,71,40,4.63,PT,1612489949
548,suzun,53.7841,82.3116,258.94,93,100,0.82,RU,1612490227
549,saint-pierre,-21.3393,55.4781,299.15,73,90,2.57,RE,1612490227
550,tanda,26.55,82.65,287.46,67,61,2.11,IN,1612490227
551,east stroudsburg,40.9995,-75.1813,270.93,62,95,0.72,US,1612490227
552,petropavl,54.8753,69.1628,268.12,98,91,3.34,KZ,1612490228
553,kohima,25.6667,94.1167,287.15,57,0,1.03,IN,1612490228
554,port moresby,-9.4431,147.1797,305.15,58,75,4.12,PG,1612490228
555,yeppoon,-23.1333,150.7333,305.15,37,20,4.12,AU,1612490228
556,independence,39.0911,-94.4155,272.04,74,1,4.63,US,1612490228
557,nishihara,26.1842,127.7558,293.15,45,75,1.54,JP,1612490228
558,ribeirao branco,-24.2208,-48.7656,293.47,96,37,2.25,BR,1612490228
559,ancud,-41.8697,-73.8203,295.15,49,0,4.12,CL,1612489995
560,wencheng,33.0559,113.7978,283.79,52,53,3.53,CN,1612490229
561,gizo,-8.103,156.8419,303.3,66,28,3.42,SB,1612490229
562,artyom,40.4723,50.333,281.15,93,40,9.26,AZ,1612490229
563,karlskrona,56.1616,15.5866,260.15,92,0,2.06,SE,1612490229
564,abnub,27.2696,31.1511,282.15,71,0,5.14,EG,1612490229
565,beloha,-25.1667,45.05,298.64,74,3,3.41,MG,1612490229
566,yanam,16.7333,82.2167,293.15,94,20,3.09,IN,1612490229
567,asuncion,-25.3007,-57.6359,297.15,64,0,4.12,PY,1612490177
568,anadyr,64.75,177.4833,258.15,78,40,15,RU,1612490230
569,sao jose da coroa grande,-8.8978,-35.1478,298.89,82,13,4.45,BR,1612490230
570,muros,42.7762,-9.0603,281.48,93,99,2.44,ES,1612490230
571,siverek,37.755,39.3167,281.15,81,75,4.12,TR,1612490230
572,khandyga,62.6667,135.6,231.98,78,96,0.87,RU,1612490230
573,ondorhaan,,,,,,,,
574,vila,42.0304,-8.1588,277.59,94,35,1.32,PT,1612490231
575,marand,38.4329,45.7749,278.15,87,90,2.06,IR,1612490231
576,koslan,63.4564,48.8989,260.91,95,100,2.64,RU,1612490231
577,ixhuatan,16.3569,-94.4825,295.13,68,0,0.4,MX,1612490231
578,stykkisholmur,65.0757,-22.7297,273.41,92,100,8.32,IS,1612490231
579,napasar,27.9667,73.55,284.17,75,0,1.72,IN,1612490231
580,kijang,35.2442,129.2139,276.15,30,0,3.09,KR,1612490231
581,foso,5.7012,-1.2866,297.49,91,0,1.53,GH,1612490232
582,lukovetskiy,64.2956,41.9211,258.15,72,40,4,RU,1612490232
583,salinas,36.6777,-121.6555,288.15,47,1,4.63,US,1612490232
584,talaya,61.3833,152.75,246.67,84,100,2.38,RU,1612490232
585,pinega,64.7001,43.3936,254.97,91,100,5.3,RU,1612490232
586,rawannawi,,,,,,,,
587,novobeysugskaya,45.472,39.8861,282.42,87,100,7.58,RU,1612490232
588,novyy urengoy,66.0833,76.6333,243.04,87,51,3.58,RU,1612490233
589,formosa do rio preto,-11.0483,-45.1931,294.91,89,45,0.91,BR,1612490233
590,itacare,-14.2775,-38.9967,300.15,83,40,4.12,BR,1612490233
591,palu,-0.8917,119.8707,304.18,51,52,1.01,ID,1612490233
592,beyneu,45.3167,55.2,278.56,78,92,4.44,KZ,1612490233
593,gornyak,50.9942,81.4661,268.4,98,100,4.45,RU,1612490233
594,nordby,55.446,8.3979,269.26,86,75,3.6,DK,1612490233
595,shepsi,44.0361,39.1489,283.05,90,100,4.78,RU,1612490234
596,quesnel,52.9999,-122.5029,271.15,100,90,2.78,CA,1612490234
597,makaha,21.4694,-158.2175,297.15,68,75,6.17,US,1612490234
598,bad ischl,47.7111,13.6189,278.71,90,100,0.89,AT,1612490234
599,cabedelo,-6.9811,-34.8339,299.15,83,0,2.57,BR,1612490234
600,lavumisa,-27.31,31.892,297.15,94,100,0.51,SZ,1612490234
601,kozulka,50.0351,23.797,272.15,86,75,3,UA,1612490234
602,havre,49.5833,0.3333,281.15,93,0,4.12,FR,1612490235
603,jalu,29.0331,21.5482,284.59,86,0,2.2,LY,1612490235
604,vaitape,-16.5167,-151.75,300.79,67,16,3.06,PF,1612490235
605,wanning,18.8003,110.3967,295.53,74,16,2.83,CN,1612489944
606,scarborough,54.2797,-0.4044,278.71,95,100,3.58,GB,1612490235
607,qaqortoq,60.7167,-46.0333,263.15,52,99,2.06,GL,1612490235
608,urucui,-7.2294,-44.5561,298.1,81,100,1.38,BR,1612490235
609,bonavista,48.6499,-53.1147,277.15,100,95,1.03,CA,1612490236
610,diamantino,-14.4086,-56.4461,298.05,81,100,0.94,BR,1612490236
611,mareeba,-17,145.4333,304.82,70,40,3.09,AU,1612490236
