,City,Lat,Long,Max Temp,Humidity,Cloudiness,Wind Speed,Country,Date
0,Rikitea,-23.1203,-134.9692,299.36,69,1,5.31,PF,1612564613
1,Tabou,4.423,-7.3528,299.27,90,21,3.47,CI,1612564805
2,Mar Del Plata,-38.0023,-57.5575,296.15,53,0,3.6,AR,1612564641
3,Bluff,-46.6,168.3333,288.1,74,66,1.53,NZ,1612564805
4,Saleaula,,,,,,,,
5,Dingle,10.9995,122.6711,297.21,90,29,3.56,PH,1612564805
6,Qaanaaq,77.484,-69.3632,251.66,76,100,3.74,GL,1612564806
7,Christchurch,-43.5333,172.6333,290.15,63,75,6.69,NZ,1612564515
8,Puerto Ayora,-0.7393,-90.3518,301.15,74,40,2.57,EC,1612564806
9,Sorong,-0.8833,131.25,300.25,78,97,1.04,ID,1612564806
10,Illoqqortoormiut,,,,,,,,
11,Kaitangata,-46.2817,169.8464,289.82,64,49,3.13,NZ,1612564302
12,San Patricio,28.017,-97.5169,292.15,52,90,3.09,US,1612564622
13,Tidore,,,,,,,,
14,Albany,42.6001,-73.9662,277.04,67,88,1.88,US,1612564162
15,Valdez,1.2492,-78.9831,299.78,81,100,3.6,EC,1612564807
16,Barentsburg,,,,,,,,
17,Port-Gentil,-0.7193,8.7815,300.15,94,20,0.51,GA,1612564331
18,Punta Arenas,-53.15,-70.9167,286.15,41,0,11.32,CL,1612564312
19,Ponta Do Sol,32.6667,-17.1,284.82,64,36,1.34,PT,1612564336
20,Amderma,,,,,,,,
21,Zavodouspenskoye,56.8626,65.0155,273.15,100,90,5,RU,1612564808
22,Lavrentiya,65.5833,-171,256.9,92,100,6.49,RU,1612564808
23,Atuona,-9.8,-139.0333,299.57,81,4,7.94,PF,1612564808
24,Ushuaia,-54.8,-68.3,281.15,81,75,12.35,AR,1612564131
25,Tres Lagoas,-20.7511,-51.6783,297.23,75,36,2.72,BR,1612564808
26,Lieksa,63.3167,30.0167,260.1,93,87,4.64,FI,1612564808
27,Mamlyutka,54.9375,68.5394,273.97,97,100,4.61,KZ,1612564809
28,Georgetown,5.4112,100.3354,298.15,83,20,1.54,MY,1612564809
29,Waddan,29.1614,16.139,289.52,32,100,3.95,LY,1612564809
30,Berlevag,70.8578,29.0864,270.15,86,75,11.32,NO,1612564809
31,Aklavik,68.2191,-135.0107,237.15,68,20,2.06,CA,1612564809
32,Meiganga,6.5167,14.3,292.58,27,7,2.42,CM,1612564809
33,Inderborskiy,,,,,,,,
34,Fairbanks,64.8378,-147.7164,250.93,64,90,0.89,US,1612564810
35,Busselton,-33.65,115.3333,288.15,79,100,1.34,AU,1612564810
36,Kouroussa,10.65,-9.8833,299.26,17,64,1.5,GN,1612564810
37,Dharchula,29.85,80.5333,276.75,66,39,3.1,IN,1612564810
38,Gulu,2.7746,32.299,296.23,32,91,1.91,UG,1612564811
39,Port Lincoln,-34.7333,135.8667,291.02,78,88,7.79,AU,1612564812
40,Tuktoyaktuk,69.4541,-133.0374,239.15,68,90,5.14,CA,1612564813
41,Camacari,-12.6975,-38.3242,302.15,74,20,8.23,BR,1612564813
42,Port Elizabeth,-33.918,25.5701,294.15,94,75,4.63,ZA,1612564629
43,Mataura,-46.1927,168.8643,295.01,51,21,0.9,NZ,1612564813
44,Quincy,42.2529,-71.0023,278.15,100,100,3.6,US,1612564651
45,Dikson,73.5069,80.5464,237.79,84,4,5.11,RU,1612564813
46,Tupelo,34.2576,-88.7034,283.71,37,1,1.54,US,1612564813
47,Lakes Entrance,-37.8811,147.981,298.15,54,1,0.89,AU,1612564814
48,Hithadhoo,-0.6,73.0833,301.24,76,99,5.05,MV,1612564814
49,Hermanus,-34.4187,19.2345,293.15,86,5,1.34,ZA,1612564814
50,Cidreira,-30.1811,-50.2056,293.66,70,17,6.95,BR,1612564814
51,Salinas,36.6777,-121.6555,294.15,28,1,4.12,US,1612564814
52,Hofn,64.2539,-15.2082,276.14,78,100,6.83,IS,1612564814
53,Bethel,41.3712,-73.414,277.15,70,1,1.54,US,1612564303
54,Vastseliina,57.7303,27.2932,255.15,92,20,2,EE,1612564815
55,Stokmarknes,68.5646,14.9108,274.15,64,40,4.12,NO,1612564815
56,Lasa,46.6166,10.7002,277.59,93,0,1.54,IT,1612564815
57,Sentyabrskiy,,,,,,,,
58,Tarko-Sale,64.9225,77.785,248.03,89,100,4.99,RU,1612564815
59,Alta Floresta,-9.8756,-56.0861,297.88,89,99,1.06,BR,1612564815
60,Nueva Loja,0.0847,-76.8828,303.15,66,40,1.54,EC,1612564815
61,Isangel,-19.55,169.2667,301.15,83,20,1.76,VU,1612564671
62,Coquimbo,-29.9533,-71.3436,291.15,72,40,5.66,CL,1612564816
63,Talnakh,69.4865,88.3972,240.35,83,90,2.18,RU,1612564816
64,Khatanga,71.9667,102.5,236.62,78,11,3.47,RU,1612564816
65,Souillac,-20.5167,57.5167,299.15,78,75,1.54,MU,1612564662
66,Kiruna,67.8557,20.2251,267.15,86,75,4.63,SE,1612564816
67,Tiksi,71.6872,128.8694,245.84,89,100,4.78,RU,1612564816
68,Half Moon Bay,37.4636,-122.4286,291.15,72,1,3.6,US,1612564648
69,Bengkulu,-3.8004,102.2655,297.38,84,79,2.22,ID,1612564623
70,Sinnamary,5.3833,-52.95,298.39,86,76,6.8,GF,1612564817
71,Saskylakh,71.9167,114.0833,239.92,84,92,3.05,RU,1612564303
72,Quipile,4.7481,-74.5631,290.15,63,75,4.12,CO,1612564817
73,Vanimo,-2.6741,141.3028,298.41,83,100,1.92,PG,1612564817
74,Cape Town,-33.9258,18.4232,293.71,88,0,6.69,ZA,1612564237
75,Saldanha,-33.0117,17.9442,291.15,82,0,5.66,ZA,1612564669
76,Champerico,14.3,-91.9167,303.15,66,40,4.12,GT,1612564818
77,La Ronge,55.1001,-105.2842,245.15,63,94,5.14,CA,1612564818
78,Port Blair,11.6667,92.75,298.43,75,44,2.7,IN,1612564818
79,Pitimbu,-7.4706,-34.8086,300.15,78,0,3.09,BR,1612564818
80,Manaus,-3.1019,-60.025,303.15,70,75,2.57,BR,1612564686
81,Aljezur,37.3191,-8.8033,284.26,100,86,1.79,PT,1612564818
82,Port Alfred,-33.5906,26.891,294.26,94,82,6.86,ZA,1612564593
83,Belushya Guba,,,,,,,,
84,Namibe,-15.1961,12.1522,295.08,79,30,3.37,AO,1612564819
85,Mombaca,-5.7431,-39.6275,300.24,47,23,2.64,BR,1612564819
86,Brae,60.3964,-1.353,274.15,60,90,9.77,GB,1612564819
87,Sibolga,1.7427,98.7792,297.22,81,97,1.62,ID,1612564819
88,Walvis Bay,-22.9575,14.5053,291.48,88,49,3.6,NA,1612564819
89,Havelock,34.8791,-76.9013,285.37,100,90,4.63,US,1612564819
90,Klamath Falls,42.2249,-121.7817,281.15,53,1,6.17,US,1612564776
91,Abbeville,50.1,1.8333,280.93,78,100,1.64,FR,1612564820
92,Guerrero Negro,27.9769,-114.0611,292.89,40,0,7.66,MX,1612564820
93,Bargal,,,,,,,,
94,Kupang,-10.1667,123.5833,298.15,100,90,1.03,ID,1612564820
95,Butaritari,3.0707,172.7902,300.71,80,87,8.28,KI,1612564820
96,Destin,30.3935,-86.4958,287.15,72,90,2.57,US,1612564820
97,Jamestown,42.097,-79.2353,269.26,63,90,7.72,US,1612564821
98,Portland,45.5234,-122.6762,284.82,76,75,2.57,US,1612564673
99,Lebu,-37.6167,-73.65,290.09,81,4,3.62,CL,1612564821
100,Udachnyy,66.4167,112.4,234.54,78,29,1.04,RU,1612564821
101,Amapa,1,-52,296.12,96,100,2.15,BR,1612564821
102,Ferme-Neuve,46.7001,-75.4493,272.15,80,100,6.17,CA,1612564821
103,Maceio,-9.6658,-35.7353,298.15,83,0,4.63,BR,1612564740
104,Hobart,-42.8794,147.3294,294.26,94,75,3.6,AU,1612564820
105,Loreto,22.2667,-101.9667,299.43,13,0,7.44,MX,1612564822
106,Richards Bay,-28.783,32.0377,297.37,91,99,1.21,ZA,1612564822
107,Mizdah,31.4451,12.9801,287.98,34,88,3.52,LY,1612564822
108,Tuatapere,-46.1333,167.6833,292.2,66,94,2.08,NZ,1612564822
109,Norman Wells,65.282,-126.8329,241.15,68,75,2.06,CA,1612564822
110,Makakilo City,21.3469,-158.0858,297.15,50,40,4.12,US,1612564822
111,Attawapiskat,,,,,,,,
112,Longfeng,46.55,125.1167,253.54,89,100,3.02,CN,1612564823
113,New Norfolk,-42.7826,147.0587,293.71,93,76,1.34,AU,1612564303
114,Alofi,-19.0595,-169.9187,299.15,89,100,5.66,NU,1612564823
115,Vaini,-21.2,-175.2,303.15,79,75,2.57,TO,1612564823
116,Tasiilaq,65.6145,-37.6368,269.15,50,75,2.06,GL,1612564823
117,Lazaro Cardenas,17.9583,-102.2,299.99,63,0,2.81,MX,1612564823
118,Asfi,32.2994,-9.2372,287.14,74,80,3.78,MA,1612564824
119,Esperance,-33.8667,121.9,288.15,94,90,2.06,AU,1612564303
120,Tumannyy,,,,,,,,
121,Kruisfontein,-34.0033,24.7314,295.37,84,33,0.89,ZA,1612564824
122,Carnarvon,-24.8667,113.6333,300.15,78,75,9.77,AU,1612564824
123,Kapaa,22.0752,-159.319,294.82,60,75,2.71,US,1612564613
124,Klaksvik,62.2266,-6.589,273.15,100,20,0.51,FO,1612564637
125,Mangalia,43.8,28.5833,280.15,100,90,2.06,RO,1612564825
126,Taolanaro,,,,,,,,
127,Porto Novo,6.4965,2.6036,302.15,84,40,6.17,BJ,1612564825
128,Faanui,-16.4833,-151.75,300.64,63,2,1.61,PF,1612564825
129,Emerald,-23.5333,148.1667,300.15,65,90,4.63,AU,1612564825
130,Vaitupu,,,,,,,,
131,Bathsheba,13.2167,-59.5167,299.15,65,20,8.23,BB,1612564825
132,Port Hardy,50.6996,-127.4199,281.15,71,75,4.12,CA,1612564826
133,San Cristobal,7.7669,-72.225,302.15,51,40,6.17,VE,1612564576
134,Korla,41.7597,86.1469,269.69,82,0,1,CN,1612564686
135,Bredasdorp,-34.5322,20.0403,291.15,88,9,0.51,ZA,1612564599
136,Saint-Philippe,-21.3585,55.7679,299.15,65,0,2.57,RE,1612564600
137,Soyo,-6.1349,12.3689,299.71,87,70,3.28,AO,1612564826
138,Miyako,39.6367,141.9525,277.37,85,96,3.49,JP,1612564826
139,Aksarayskiy,46.7924,48.0119,277.04,81,75,12,RU,1612564826
140,Clarksdale,34.2001,-90.5709,283.15,43,2,2.57,US,1612564827
141,Ilulissat,69.2167,-51.1,260.15,40,0,6.69,GL,1612564827
142,Karpathos,35.507,27.2132,288.15,88,63,6.17,GR,1612564827
143,Andradas,-22.0681,-46.5692,293.28,92,98,1.23,BR,1612564827
144,Ancud,-41.8697,-73.8203,301.15,32,0,7.2,CL,1612564636
145,Fort Saint James,54.4333,-124.25,270.32,96,98,0.6,CA,1612564827
146,Bantry,51.6833,-9.45,278.15,93,75,4.12,IE,1612564827
147,Kholtoson,50.2981,103.3097,250.34,86,50,1,RU,1612564828
148,Sungai Siput Utara,,,,,,,,
149,Samoylovka,51.184,43.7081,262.77,91,100,7.67,RU,1612564828
150,Castro,-24.7911,-50.0119,290.1,59,0,1.12,BR,1612564826
151,Vostok,46.4856,135.8833,255.34,94,100,1.39,RU,1612564828
152,Bereda,43.2686,-7.5406,281.48,100,100,5.36,ES,1612564828
153,Gao,16.6362,1.637,295.58,19,30,4.86,ML,1612564828
154,Formoso Do Araguaia,,,,,,,,
155,Itarema,-2.9248,-39.9167,298.81,82,17,5.46,BR,1612564829
156,Necochea,-38.5473,-58.7368,296.06,37,0,3.54,AR,1612564829
157,Meyungs,,,,,,,,
158,Guiratinga,-16.3494,-53.7583,297.75,84,95,1.86,BR,1612564829
159,Taltal,-25.4,-70.4833,292.58,69,25,2.2,CL,1612564829
160,Narsaq,60.9167,-46.05,264.15,48,0,1.03,GL,1612564830
161,Pelham,33.2857,-86.81,284.15,27,1,2.57,US,1612564830
162,Chuy,-33.6971,-53.4616,290.08,80,23,4,UY,1612564830
163,Jinka,5.65,36.65,294.32,44,40,0.45,ET,1612564830
164,Warrington,53.3925,-2.5802,279.82,100,90,4.63,GB,1612564651
165,East London,-33.0153,27.9116,296.3,88,99,4.36,ZA,1612564602
166,Hilo,19.7297,-155.09,299.15,57,1,2.57,US,1612564622
167,Broken Hill,-31.95,141.4333,292.15,55,0,7.2,AU,1612564831
168,Beringovskiy,63.05,179.3167,252.18,88,100,4.09,RU,1612564831
169,Buraydah,26.326,43.975,285.15,87,75,4.63,SA,1612564831
170,Morondava,-20.2833,44.2833,300.71,83,100,1.88,MG,1612564831
171,Cherskiy,68.75,161.3,246.28,77,0,1.02,RU,1612564832
172,Diamantino,-14.4086,-56.4461,298.41,84,84,1.76,BR,1612564832
173,Piterka,50.6803,47.4454,268.44,95,100,8.81,RU,1612564832
174,The Pas,53.8251,-101.2541,247.15,64,1,7.2,CA,1612564832
175,Palabuhanratu,,,,,,,,
176,Provideniya,64.3833,-173.3,259.77,92,100,5.62,RU,1612564614
177,Caravelas,-17.7125,-39.2481,299.92,80,98,6.95,BR,1612564833
178,Baruun-Urt,46.6806,113.2792,254.91,88,75,2.53,MN,1612564833
179,Adre,13.4667,22.2,289.01,29,0,10.32,TD,1612564833
180,Pontes E Lacerda,-15.2261,-59.3353,297.71,87,53,0.72,BR,1612564686
181,Barrow,71.2906,-156.7887,253.15,77,90,5.66,US,1612564607
182,Faya,18.3851,42.4509,286.15,38,20,5.66,SA,1612564833
183,Bagan,54.1001,77.6646,271.83,99,100,3.75,RU,1612564833
184,Superior,46.7208,-92.1041,260.15,52,90,8.23,US,1612564820
185,Peniche,39.3558,-9.3811,285.37,88,88,6.26,PT,1612564680
186,El Faiyum,,,,,,,,
187,Sao Joao Da Barra,-21.6403,-41.0511,301.15,32,0,5.14,BR,1612564699
188,Sao Lourenco Do Sul,-31.3653,-51.9783,292.59,78,59,4.68,BR,1612564834
189,Kavieng,-2.5744,150.7967,299.68,82,100,4.25,PG,1612564834
190,Calabozo,8.9242,-67.4293,304.5,38,100,2.36,VE,1612564834
191,Mayo,38.8876,-76.5119,285.15,37,1,2.06,US,1612564835
192,Gayny,60.3071,54.3241,267.87,98,100,3.98,RU,1612564835
193,Arraial Do Cabo,-22.9661,-42.0278,297.66,93,100,2.7,BR,1612564835
194,Pevek,69.7008,170.3133,245.72,86,30,0.23,RU,1612564835
195,Ahipara,-35.1667,173.1667,295.06,64,100,1.36,NZ,1612564835
196,Itacare,-14.2775,-38.9967,301.15,89,40,7.2,BR,1612564835
197,Gat,31.61,34.7642,288.71,100,41,1.7,IL,1612564659
198,Longyearbyen,78.2186,15.6401,268.15,86,75,2.06,SJ,1612564836
199,Kot Addu,30.4692,70.9671,286.15,82,0,0.54,PK,1612564836
200,Ust-Kulom,61.6864,53.6902,264.2,96,100,5.79,RU,1612564836
201,Muscat,23.6139,58.5922,291.15,82,0,1.03,OM,1612564661
202,Morant Bay,17.8815,-76.4093,301.15,78,20,11.32,JM,1612564836
203,Pemangkat,1.1667,108.9667,297.35,91,100,3.33,ID,1612564836
204,Victoria,22.2855,114.1577,291.48,74,0,2.13,HK,1612564576
205,Kendari,-3.945,122.4989,298.09,89,27,0.93,ID,1612564837
206,Chokurdakh,70.6333,147.9167,249.23,89,100,5.54,RU,1612564675
207,Silver City,32.7701,-108.2803,287.15,19,1,11.32,US,1612564837
208,Saint George,37.1041,-113.5841,288.71,23,1,5.66,US,1612564724
209,Avarua,-21.2078,-159.775,303.15,66,20,6.69,CK,1612564837
210,Puerto Baquerizo Moreno,-0.9,-89.6,301.15,83,20,7.2,EC,1612564837
211,Yellowknife,62.456,-114.3525,238.71,68,75,5.66,CA,1612564619
212,Grand River South East,,,,,,,,
213,Yarada,17.65,83.2667,291.15,82,0,1.03,IN,1612564838
214,Tautira,-17.7333,-149.15,302.15,65,40,6.17,PF,1612564838
215,Airai,-8.9266,125.4092,289.31,100,100,1.47,TL,1612564838
216,Touros,-5.1989,-35.4608,299.15,78,0,2.57,BR,1612564838
217,Bolungarvik,,,,,,,,
218,Margate,51.3813,1.3862,280.37,91,20,0.45,GB,1612564838
219,Nikolskoye,59.7035,30.7861,262.04,78,75,6,RU,1612564838
220,Tiznit,29.5833,-9.5,283.99,72,66,4.27,MA,1612564839
221,Labuhan,-6.8844,112.2051,298.42,86,91,4.44,ID,1612564610
222,Maragogi,-9.0122,-35.2225,298.92,81,4,4.1,BR,1612564652
223,Yeletskiy,,,,,,,,
224,Kamina,-8.7386,24.9906,291.8,95,98,1.79,CD,1612564839
225,Quzhou,28.9594,118.8686,285.1,89,98,1.42,CN,1612564839
226,Vikravandi,12.0333,79.55,292.58,85,0,2.71,IN,1612564839
227,Ploemeur,47.7333,-3.4333,279.15,87,0,2.57,FR,1612564840
228,Bada,51.392,109.8717,252.48,88,98,2.14,RU,1612564840
229,Tsihombe,,,,,,,,
230,Mahebourg,-20.4081,57.7,299.15,78,75,1.54,MU,1612564840
231,Vestmannaeyjar,63.4427,-20.2734,278.19,68,96,12.12,IS,1612564840
232,Alice Springs,-23.7,133.8833,296.48,46,75,3.09,AU,1612564650
233,Ostrovnoy,68.0531,39.5131,262.53,92,100,4.69,RU,1612564840
234,Fergus Falls,46.283,-96.0776,258.15,78,75,10.8,US,1612564841
235,Torbat-E Jam,35.244,60.6225,283.05,44,91,1.27,IR,1612564818
236,Luderitz,-26.6481,15.1594,295.17,50,0,9.17,NA,1612564841
237,La Macarena,2.1837,-73.7849,298.07,92,97,1.19,CO,1612564841
238,Messias,-9.3833,-35.8417,298.15,83,0,4.63,BR,1612564841
239,Inhambane,-23.865,35.3833,299.17,86,94,3.45,MZ,1612564841
240,Saint-Augustin,51.226,-58.6502,272.35,98,100,5.99,CA,1612564841
241,Carupano,10.6678,-63.2585,297.75,82,63,5.85,VE,1612564841
242,Cabo San Lucas,22.8909,-109.9124,302.15,25,1,5.14,MX,1612564598
243,Kodiak,57.79,-152.4072,276.15,70,90,3.09,US,1612564842
244,Bentong,3.5181,101.9079,299.26,81,59,0.93,MY,1612564842
245,Teguldet,57.3064,88.1667,258.7,94,99,2.03,RU,1612564842
246,Eyl,7.9803,49.8164,294.99,80,9,5.34,SO,1612564842
247,Yaan,7.3833,8.5667,299.89,17,33,1.76,NG,1612564661
248,Gardelegen,52.5252,11.3952,273.15,82,100,1.79,DE,1612564842
249,Shevchenkove,49.6959,37.1735,265.15,73,90,5,UA,1612564843
250,Cairns,-16.9167,145.7667,301.48,94,90,1.54,AU,1612564843
251,Tashtyp,52.7939,89.8983,264.2,93,100,0.2,RU,1612564843
252,Quirinopolis,-18.4483,-50.4517,296.99,88,100,3.86,BR,1612564843
253,Quatre Cocos,-20.2078,57.7625,299.15,78,75,1.54,MU,1612564699
254,Padang,-0.9492,100.3543,297.15,88,40,0.51,ID,1612564843
255,Herat,34.5,62,280.7,46,0,1.74,AF,1612564844
256,Iqaluit,63.7506,-68.5145,268.15,80,75,9.26,CA,1612564844
257,Surt,31.2089,16.5887,291.16,39,22,5.88,LY,1612564812
258,Barkly West,-28.5354,24.5215,295.15,78,0,4.12,ZA,1612564844
259,Maxixe,-23.8597,35.3472,298.7,88,95,3.01,MZ,1612564844
260,Arlit,18.7369,7.3853,292.58,23,0,2.75,NE,1612564844
261,Cururupu,-1.8283,-44.8683,297.93,81,91,2.01,BR,1612564844
262,Ixtapa,20.7,-105.2,297.15,73,1,4.12,MX,1612564735
263,Newport,51.5877,-2.9984,277.04,88,0,2.96,GB,1612564845
264,Mayari,,,,,,,,
265,Auki,-8.7676,160.7034,301.11,77,77,4.37,SB,1612564845
266,Dolbeau,,,,,,,,
267,North Bend,43.4065,-124.2243,284.82,93,90,3.6,US,1612564845
268,Leh,34.1667,77.5833,256.51,61,0,1.03,IN,1612564845
269,Hambantota,6.1241,81.1185,297.96,77,99,5.94,LK,1612564846
270,Dabou,5.3256,-4.3769,298.15,100,20,1.54,CI,1612564712
271,La Ciotat,43.1748,5.6045,286.48,77,100,1.34,FR,1612564846
272,Tsabong,-26.0217,22.401,297.33,65,0,6.46,BW,1612564846
273,Upernavik,72.7868,-56.1549,257.24,71,56,2.43,GL,1612564846
274,Killybegs,54.6333,-8.45,277.04,96,47,2.24,IE,1612564846
275,The Valley,18.217,-63.0578,299.15,69,20,6.69,AI,1612564846
276,Solnechnyy,50.7214,136.6319,246.62,84,100,1.31,RU,1612564847
277,Kieta,-6.2167,155.6333,302.21,70,7,3.35,PG,1612564847
278,Jibuti,11.5,42.5,298.15,65,75,3.09,DJ,1612564847
279,Lancaster,40.2504,-76.2499,281.15,49,40,5.14,US,1612564715
280,Mangaluru,12.8667,74.8833,296.15,88,1,2.29,IN,1612564847
281,Saint Anthony,45.0205,-93.218,261.15,56,1,7.72,US,1612564847
282,Halalo,,,,,,,,
283,Muroto,33.2833,134.15,280.15,81,75,2.06,JP,1612564848
284,Samusu,,,,,,,,
285,Catabola,-12.15,17.2833,290.84,94,100,2.32,AO,1612564848
286,Anadyr,64.75,177.4833,255.37,78,0,6,RU,1612564848
287,Vitimskiy,,,,,,,,
288,Nieuw Amsterdam,5.8833,-55.0833,300.15,78,20,2.06,SR,1612564848
289,Uturoa,-16.7333,-151.4333,300.77,63,13,1.86,PF,1612564848
290,Bolshaya Martynovka,47.271,41.6679,270.91,88,54,6.09,RU,1612564849
291,Dunedin,-45.8742,170.5036,288.15,70,97,10.28,NZ,1612564751
292,Evensk,61.95,159.2333,254.62,89,100,5.91,RU,1612564849
293,Jaque,7.5175,-78.1703,300.16,81,76,0.91,PA,1612564849
294,Stantsionno-Oyashinskiy,55.4664,83.8245,262.19,97,82,3.13,RU,1612564849
295,Mehamn,71.0357,27.8492,270.15,74,40,11.32,NO,1612564849
296,Katsuura,35.1333,140.3,278.15,60,75,2.06,JP,1612564849
297,Leningradskiy,69.3833,178.4167,249.7,87,100,3.6,RU,1612564850
298,Shwebo,22.5667,95.7,289.16,53,16,0.85,MM,1612564850
299,Yumen,40.2833,97.2,272.18,72,100,9.33,CN,1612564850
300,Mazamari,-11.3258,-74.5308,297.29,81,100,0.21,PE,1612564850
301,Dillon,34.4166,-79.3712,285.93,94,75,2.06,US,1612564850
302,Japura,-0.3167,102.35,295.17,97,98,0.53,ID,1612564850
303,Marawi,7.9986,124.2928,294.82,90,92,2.68,PH,1612564829
304,Duekoue,6.7472,-7.3496,297.64,85,11,1.62,CI,1612564851
305,Santa Rosa,14.3122,121.1114,299.15,78,75,1.03,PH,1612564838
306,Aksarka,66.5606,67.7975,243.97,87,100,5.76,RU,1612564851
307,Halifax,44.6453,-63.5724,275.37,80,99,2.57,CA,1612564840
308,Sompeta,18.9333,84.6,292.63,53,0,2.1,IN,1612564851
309,Te Anau,-45.4167,167.7167,293.8,53,75,0.94,NZ,1612564667
310,Yulara,-25.2406,130.9889,293.15,32,12,4.63,AU,1612564593
311,Toungoo,,,,,,,,
312,Birin,26.8865,88.0718,281.72,67,28,2.18,NP,1612564852
313,Clonakilty,51.6231,-8.8706,278.15,93,75,4.12,IE,1612564852
314,Barabai,-2.5833,115.3833,296.48,92,100,0.44,ID,1612564852
315,Umm Lajj,25.0213,37.2685,293.43,58,26,4.54,SA,1612564852
316,Ribeira Grande,38.5167,-28.7,288.09,82,94,5.1,PT,1612564852
317,Namtsy,62.7161,129.6658,230.15,66,92,1,RU,1612564852
318,Deputatskiy,69.3,139.9,241.86,88,90,0.09,RU,1612564853
319,Bandipur,27.9333,84.4167,277.6,83,29,1.26,NP,1612564853
320,Akyab,20.15,92.9,289.65,63,5,2.51,MM,1612564853
321,Ngunguru,-35.6167,174.5,292.24,72,100,4.11,NZ,1612564853
322,Kushima,31.4583,131.2333,282.15,93,90,2.06,JP,1612564830
323,Hulyaypole,47.6653,36.2578,269.52,87,32,4.87,UA,1612564853
324,Rio Grande,-32.035,-52.0986,292.59,78,37,6.91,BR,1612564772
325,Moree,-29.4667,149.85,297.15,60,90,8.75,AU,1612564854
326,Payo,-3.7508,103.6372,295.86,95,85,1.32,ID,1612564854
327,Sovetskiy,61.3614,63.5842,265.06,97,100,3.63,RU,1612564854
328,Vardo,70.3705,31.1107,269.15,86,75,6.17,NO,1612564633
329,Nizhneyansk,,,,,,,,
330,Naron,43.5167,-8.1528,283.15,100,75,4.63,ES,1612564854
331,Opobo,,,,,,,,
332,Sorland,67.667,12.6934,272.15,86,40,3.09,NO,1612564855
333,Kautokeino,69.0125,23.0412,264.28,93,69,5.2,NO,1612564855
334,Puerto Escondido,15.85,-97.0667,301.15,69,75,6.17,MX,1612564855
335,Kangaatsiaq,68.3065,-53.4641,260.84,82,45,5.76,GL,1612564855
336,Cartagena,10.3997,-75.5144,302.15,79,40,6.17,CO,1612564855
337,Sumbawa,,,,,,,,
338,Hamilton,39.1834,-84.5333,276.15,48,20,7.2,US,1612564269
339,Cuorgne,45.3895,7.6499,280.93,84,98,0.57,IT,1612564856
340,Dalvik,65.9702,-18.5286,272.15,69,20,2.06,IS,1612564856
341,Porto Walter,-8.2686,-72.7439,298.47,85,91,1.03,BR,1612564856
342,Tianpeng,30.9866,103.9393,279.82,93,0,1.31,CN,1612564856
343,Lolua,,,,,,,,
344,Manitouwadge,49.1215,-85.8403,259.15,72,90,3.6,CA,1612564856
345,Baie-Comeau,49.2168,-68.1489,271.15,86,90,3.6,CA,1612564856
346,Concordia,-31.393,-58.0209,299.26,57,0,3.09,AR,1612564587
347,Biggar,55.6167,-3.5167,275.93,10,100,3.13,GB,1612564857
348,Tabas,33.5959,56.9244,283.15,22,13,2.06,IR,1612564857
349,Yar-Sale,66.8333,70.8333,244.75,88,100,4.1,RU,1612564857
350,Bartica,6.4,-58.6167,300.15,74,75,5.14,GY,1612564857
351,Komsomolskiy,40.4272,71.7189,277.15,48,100,3.09,UZ,1612564857
352,Linxia,35.6003,103.2064,269.9,71,75,1.04,CN,1612564857
353,Ardakan,32.31,54.0175,283.15,23,0,2.06,IR,1612564586
354,Chabahar,25.2919,60.643,292.07,65,0,2.16,IR,1612564858
355,Bonthe,7.5264,-12.505,298.8,78,28,3.62,SL,1612564833
356,Sete,43.4018,3.6966,286.48,82,75,5.66,FR,1612564858
357,Paskov,49.7318,18.2904,272.59,100,90,3.09,CZ,1612564858
358,Eirunepe,-6.6603,-69.8736,295.74,97,100,0.26,BR,1612564599
359,Farim,12.4839,-15.2217,298.15,53,99,2.06,GW,1612564858
360,Geraldton,-28.7667,114.6,289.15,88,90,12.86,AU,1612564859
361,Constitucion,-35.3333,-72.4167,289.47,78,22,1.14,CL,1612564859
362,Boende,-0.2167,20.8667,296.38,85,100,0.35,CD,1612564859
363,Angoram,-4.0625,144.0661,297.49,94,100,0.69,PG,1612564859
364,Samalaeulu,,,,,,,,
365,Mys Shmidta,,,,,,,,
366,Kota Bahru,6.1333,102.2386,298.15,88,20,1.03,MY,1612564859
367,Three Hills,51.7001,-113.2686,255.37,71,100,4.63,CA,1612564860
368,Severo-Kurilsk,50.6789,156.125,263.26,84,51,2.4,RU,1612564860
369,Coronel Vivida,-25.9797,-52.5678,288.83,85,0,2.31,BR,1612564663
370,Mogadishu,2.0371,45.3438,297.36,85,5,7.51,SO,1612564860
371,Znamenskoye,57.1281,73.8282,273.96,98,96,3.52,RU,1612564860
372,Hualmay,-11.0964,-77.6139,295.55,73,73,4.45,PE,1612564855
373,Konevo,62.1215,39.3192,254.01,91,100,4.75,RU,1612564861
374,Basco,20.4487,121.9702,295.74,80,81,7.19,PH,1612564861
375,Clyde River,70.4692,-68.5914,247.15,76,90,6.17,CA,1612564664
376,Denia,38.8408,0.1057,287.04,88,77,2.68,ES,1612564861
377,Owosso,42.9978,-84.1766,265.37,79,90,4.63,US,1612564861
378,Ekuvukeni,-28.4675,30.1551,292.55,93,100,0.31,ZA,1612564861
379,Sarakhs,36.5449,61.1577,289.15,23,61,5.14,IR,1612564862
380,Coahuayana,18.7333,-103.6833,298.15,78,20,4.12,MX,1612564862
381,Serra Talhada,-7.9919,-38.2983,302.93,34,90,2.49,BR,1612564862
382,Oktyabrskiy,54.4815,53.471,274.79,95,100,4.99,RU,1612564862
383,Aripuana,-9.1667,-60.6333,297.88,88,99,1.02,BR,1612564862
384,Sioux Lookout,50.1001,-91.917,254.15,71,90,8.23,CA,1612564616
385,Nhulunbuy,-12.2333,136.7667,298.15,94,90,4.63,AU,1612564862
386,Bubaque,11.2833,-15.8333,299.3,63,93,8.32,GW,1612564863
387,Acari,-15.4311,-74.6158,295.96,67,81,3.29,PE,1612564683
388,Valle Hermoso,25.6667,-97.8333,294.15,78,75,6.69,MX,1612564863
389,Kargasok,59.0556,80.8572,261.31,96,100,3.14,RU,1612564863
390,Pisco,-13.7,-76.2167,296.15,78,0,7.2,PE,1612564854
391,West Bay,19.3667,-81.4167,300.93,78,40,5.14,KY,1612564670
392,Belmonte,-15.8631,-38.8828,300.15,74,40,6.17,BR,1612564857
393,Santa Eulalia,-11.85,-76.6833,295.15,78,75,5.14,PE,1612564864
394,Thompson,55.7435,-97.8558,245.15,69,90,5.66,CA,1612564781
395,Naro,37.2935,13.7936,283.15,71,27,2.01,IT,1612564864
396,La Libertad,-2.2333,-80.9,301.15,69,0,5.14,EC,1612564864
397,Namatanai,-3.6667,152.4333,297.93,90,100,4.83,PG,1612564625
398,Tarland,,,,,,,,
399,Timra,62.487,17.3257,262.15,85,6,3.6,SE,1612564864
400,Qasigiannguit,68.8193,-51.1922,260.15,40,1,6.69,GL,1612564865
401,Malinovoye Ozero,51.6753,79.7825,270.83,98,94,2.08,RU,1612564865
402,Kushikino,31.7167,130.2667,281.15,100,75,1.03,JP,1612564577
403,Pandan,14.0453,124.1694,298.77,87,85,3.55,PH,1612564865
404,Ruatoria,,,,,,,,
405,Tessalit,20.1986,1.0114,295.54,18,74,5.91,ML,1612564694
406,Welkom,-27.9864,26.7066,291.48,92,49,2.9,ZA,1612564865
407,Pochutla,15.7432,-96.4661,300.37,74,75,5.66,MX,1612564865
408,Hami,42.8,93.45,271.34,85,97,1.8,CN,1612564866
409,Bandarbeyla,9.4942,50.8122,296.26,72,18,4.39,SO,1612564866
410,Lamar,33.6668,-95.5836,286.48,24,90,4.12,US,1612564866
411,Nguiu,,,,,,,,
412,Ayame,5.6083,-3.1563,298.19,91,66,2.14,CI,1612564866
413,Saint-Leu,-21.15,55.2833,298.15,57,38,1.86,RE,1612564866
414,Nanortalik,60.1432,-45.2371,266.56,74,0,1.53,GL,1612564866
415,Comodoro Rivadavia,-45.8667,-67.5,290.15,59,0,6.17,AR,1612564699
416,Iralaya,15,-83.2333,301.15,79,40,2.06,HN,1612564867
417,Mago,53.2514,140.1822,249.26,89,100,1.47,RU,1612564867
418,Sitka,57.0531,-135.33,276.15,93,90,4.12,US,1612564867
419,Manjacaze,-24.7117,33.8828,297.32,92,100,1.82,MZ,1612564867
420,Porbandar,21.6422,69.6093,291.45,38,0,6.84,IN,1612564867
421,Hirara,24.8,125.2833,290.15,82,20,1.54,JP,1612564868
422,Kathu,7.9178,98.3332,299.15,73,20,5.14,TH,1612564868
423,Chagda,,,,,,,,
424,Liverpool,53.4106,-2.9779,279.26,100,90,4.63,GB,1612564855
425,Los Llanos De Aridane,28.6585,-17.9182,289.15,51,0,6.69,ES,1612564570
426,Hobyo,5.3505,48.5268,297.54,77,36,6.97,SO,1612564624
427,Yarkovo,57.4028,67.0786,274.17,96,100,5.35,RU,1612564868
428,Horsham,51.064,-0.3272,280.15,87,75,2.06,GB,1612564868
429,Sanary-Sur-Mer,43.1178,5.8001,286.48,82,100,3.13,FR,1612564869
430,Kahului,20.8947,-156.47,295.15,68,40,3.6,US,1612564617
431,Ayan,56.45,138.1667,249.3,81,99,5.71,RU,1612564869
432,Valparaiso,-33.0393,-71.6273,291.15,77,75,3.09,CL,1612564577
433,Kavaratti,10.5669,72.642,299.98,77,2,6.4,IN,1612564634
434,Mendi,-6.1761,143.6513,288.07,91,100,1.07,PG,1612564869
435,Ambon,-3.6954,128.1814,297.15,94,20,2.57,ID,1612564869
436,Angra,,,,,,,,
437,Nuuk,64.1835,-51.7216,265.15,73,20,7.72,GL,1612564653
438,Nalut,30.3333,10.85,288.34,32,100,5.66,LY,1612564870
439,Whitehorse,60.7161,-135.0538,254.82,71,75,1.18,CA,1612564870
440,Mandalgovi,45.7625,106.2708,262.44,93,100,5.79,MN,1612564870
441,Mwense,-10.3845,28.698,293.16,93,100,0.64,ZM,1612564870
442,Kawalu,-7.3817,108.2082,295.15,89,48,1.74,ID,1612564870
443,Saint-Francois,46.4154,3.9054,280.93,93,100,2.57,FR,1612564871
444,Ust-Omchug,61.15,149.6333,242.86,82,89,1.27,RU,1612564871
445,Union,40.6334,-74.2663,281.15,53,1,1.54,US,1612564374
446,Karaul,,,,,,,,
447,Yerbogachen,61.2767,108.0108,251.14,91,100,1.43,RU,1612564871
448,Port Hedland,-20.3167,118.5667,299.15,94,40,3.09,AU,1612564871
449,Mnogovershinnyy,53.9353,139.9242,247.88,91,100,1.9,RU,1612564871
450,Kimbe,-5.5502,150.1429,301.3,77,76,0.74,PG,1612564872
451,Tapes,-30.6733,-51.3958,292.47,77,36,5.45,BR,1612564872
452,Mount Isa,-20.7333,139.5,299.15,73,40,5.66,AU,1612564670
453,Kongolo,-5.3833,27,295.62,89,100,0.54,CD,1612564872
454,Rocha,-34.4833,-54.3333,288.74,82,0,2.47,UY,1612564872
455,Mount Pleasant,32.7941,-79.8626,285.37,100,90,4.15,US,1612564620
456,Lagoa,39.05,-27.9833,287.88,87,98,6.97,PT,1612564872
457,Vallenar,-28.5708,-70.7581,297.27,41,33,2.86,CL,1612564873
458,Kathmandu,27.7167,85.3167,281.15,81,75,2.06,NP,1612564741
459,Vaitape,-16.5167,-151.75,300.68,63,1,1.6,PF,1612564873
460,Mosquera,4.7059,-74.2302,290.15,63,75,4.12,CO,1612564873
461,Cabatuan,10.8794,122.486,297.32,87,82,4.78,PH,1612564873
462,Jamame,0.0722,42.7506,296.45,89,0,3.96,SO,1612564873
463,Lorengau,-2.0226,147.2712,301.58,72,74,1.96,PG,1612564873
464,Twin Falls,42.3505,-114.6445,278.71,60,20,14.92,US,1612564874
465,Linhares,-19.3911,-40.0722,299.43,81,86,3.96,BR,1612564874
466,Toamasina,-18.1667,49.3833,298.15,94,75,2.06,MG,1612564874
467,Otane,-39.8833,176.6333,289.82,75,68,0.45,NZ,1612564875
468,Teya,60.3778,92.6267,253.45,89,100,1.92,RU,1612564875
469,Yenagoa,4.9247,6.2642,299.84,85,0,2.09,NG,1612564875
470,Torbay,47.6666,-52.7314,275.93,93,90,14.4,CA,1612564836
471,Vyatskiye Polyany,56.226,51.0656,266.25,96,99,5.76,RU,1612564875
472,Saint-Joseph,-21.3667,55.6167,299.15,61,20,3.6,RE,1612564875
473,Lar Gerd,,,,,,,,
474,Calvinia,-31.4707,19.776,291.87,50,0,1.22,ZA,1612564876
475,Baykit,61.67,96.37,252.87,87,100,1.17,RU,1612564863
476,Pangnirtung,66.1451,-65.7125,264.15,92,90,3.09,CA,1612564614
477,Kenai,60.5544,-151.2583,263.15,85,75,2.06,US,1612564876
478,Srednekolymsk,67.45,153.6833,241.64,85,7,0.72,RU,1612564838
479,Taoudenni,22.6783,-3.9836,299.27,17,93,2.06,ML,1612564876
480,Rio Gallegos,-51.6226,-69.2181,290.15,34,20,10.29,AR,1612564857
481,Krasnogorskiy,54.6025,61.231,274.57,98,100,7.08,RU,1612564877
482,Sao Filipe,14.8961,-24.4956,294.11,77,13,6.94,CV,1612564683
483,Santa Clara,22.4,-79.9667,300.15,65,75,5.14,CU,1612564648
484,Kousseri,12.0769,15.0306,296.15,17,0,5.66,CM,1612564877
485,Amberley,39.2048,-84.428,275.93,51,75,5.14,US,1612564877
486,Rossland,49.0831,-117.8022,274.82,56,28,11.62,CA,1612564877
487,Sinkat,,,,,,,,
488,Mount Gambier,-37.8333,140.7667,288.15,88,40,3.6,AU,1612564645
489,Yantal,56.8471,105.2542,257.01,91,100,2.21,RU,1612564878
490,Arrecife,28.963,-13.5477,286.15,82,40,6.69,ES,1612564878
491,Nikolsk,53.7189,46.0712,257.56,93,100,5.99,RU,1612564878
492,Cabimas,10.3883,-71.4399,302.23,65,80,8.58,VE,1612564878
493,Biak,-0.9131,122.8766,298.35,79,100,2.79,ID,1612564878
494,Pailon,-17.65,-62.75,304.15,51,40,1.54,BO,1612564879
495,Arman,59.7,150.1667,251.21,82,86,4.63,RU,1612564875
496,Gigmoto,13.7796,124.39,299,85,95,3.41,PH,1612564879
497,Karratha,-20.7377,116.8463,299.84,77,17,5.44,AU,1612564879
498,Nemuro,43.3236,145.575,272.42,98,100,7.23,JP,1612564880
499,Lata,40.1629,-8.3327,284.26,96,100,1.26,PT,1612564627
500,Cuiluan,47.72,128.648,246,86,27,0.81,CN,1612564880
501,Vestmanna,62.1564,-7.1664,273.15,100,20,0.51,FO,1612564880
502,Haines Junction,60.7522,-137.5108,250.15,59,97,0.61,CA,1612564880
503,Carutapera,-1.195,-46.02,298.54,80,76,3.18,BR,1612564871
504,Moose Factory,51.2585,-80.6094,272.15,74,90,6.69,CA,1612564880
505,Saint-Pierre,-21.3393,55.4781,299.15,61,20,3.6,RE,1612564881
506,Villa Oliva,,,,,,,,
507,Vvedenka,49.8244,36.5075,265.15,73,90,5,UA,1612564881
508,Coihaique,-45.5752,-72.0662,302.15,30,0,3.09,CL,1612564826
509,Elko,41.0002,-115.5012,280.15,39,75,9.77,US,1612564881
510,Trairi,-3.2778,-39.2689,298.91,81,6,4.36,BR,1612564881
511,Camopi,3.1655,-52.3158,296.05,97,100,1.91,GF,1612564881
512,Pangai,-19.8,-174.35,301.15,89,75,1.03,TO,1612564881
513,Maldonado,-34.6667,-54.9167,294.15,64,20,4.63,UY,1612564882
514,Broome,42.2506,-75.833,275.15,48,20,8.23,US,1612564882
515,Valente,-11.4122,-39.4619,302.29,53,86,7.45,BR,1612564882
516,Tromso,69.6496,18.957,271.15,80,75,7.2,NO,1612564706
517,Krasnyy Yar,46.5331,48.3456,276.15,81,75,12,RU,1612564882
518,Rawson,-43.3002,-65.1023,291.2,71,3,13.09,AR,1612564883
519,Phumi Samraong,,,,,,,,
520,Kambove,-10.8764,26.5969,290.48,97,100,0.87,CD,1612564883
521,Gaborone,-24.6545,25.9086,293.15,100,90,1.03,BW,1612564883
522,Mujiayingzi,42.1167,118.7833,264.98,91,18,2.6,CN,1612564884
523,Yinchuan,38.4681,106.2731,273.78,68,0,2.85,CN,1612564884
524,Huarmey,-10.0681,-78.1522,295.76,71,84,4.27,PE,1612564858
525,Piacabucu,-10.4056,-36.4344,299.51,73,72,7.45,BR,1612564884
526,Rey Bouba,8.6724,14.1786,296.89,20,22,0.47,CM,1612564884
527,Wangou,42.0623,126.9127,265.11,97,98,1.76,CN,1612564884
528,Flin Flon,54.7682,-101.865,246.15,63,20,7.72,CA,1612564885
529,Mahon,39.8885,4.2658,290.15,59,0,7.72,ES,1612564885
530,Victor Harbor,-35.5667,138.6167,290.93,87,13,3.58,AU,1612564885
531,Goderich,43.7501,-81.7165,267.15,68,100,11.83,CA,1612564608
532,Bilma,18.6853,12.9164,290.62,28,0,3.39,NE,1612564642
533,Wajima,37.4,136.9,283.1,68,79,10.62,JP,1612564885
534,Alyangula,-13.8483,136.4192,299.15,100,90,5.14,AU,1612564864
535,Biltine,14.5333,20.9167,290.46,27,0,7.6,TD,1612564886
536,Raudeberg,61.9875,5.1352,270.37,57,0,3.81,NO,1612564886
537,Kilosa,-6.8333,36.9833,294.12,87,25,1.27,TZ,1612564886
538,Mlimba,-8.8,35.8167,295.38,86,36,1.06,TZ,1612564886
539,Pontian Kecil,1.4801,103.3899,298.15,94,20,3.09,MY,1612564886
540,Benoy,8.9833,16.3199,297.16,19,57,2.93,TD,1612564886
541,Picton,-34.1833,150.6,295.93,92,100,2.42,AU,1612564593
542,Zarate,-34.0981,-59.0286,297.59,54,0,1.34,AR,1612564887
543,Pacific Grove,36.6177,-121.9166,288.15,58,1,2.57,US,1612564887
544,Tonantins,-2.8731,-67.8022,296.3,98,100,0.98,BR,1612564887
545,Susurluk,39.9136,28.1578,283.15,100,4,0.51,TR,1612564887
546,Tarakan,3.3,117.6333,298.15,94,40,1.03,ID,1612564887
547,Warmbad,-28.45,18.7333,298.36,36,0,5.04,NA,1612564887
548,Praia Da Vitoria,38.7333,-27.0667,287.59,94,75,6.26,PT,1612564864
549,Gunnedah,-30.9833,150.25,297.15,69,90,3.09,AU,1612564888
550,Cap Malheureux,-19.9842,57.6142,297.59,80,12,1.34,MU,1612564888
551,Moroni,-11.7022,43.2551,300.38,73,20,1.24,KM,1612564813
552,Willowmore,-33.2926,23.4895,292.05,81,0,3.57,ZA,1612564888
553,Boffa,10.1667,-14.0333,295.01,84,4,1.07,GN,1612564888
554,Matara,5.9485,80.5353,296.32,86,65,2.01,LK,1612564879
555,Eldorado,-23.7869,-54.2836,293.54,73,41,1.47,BR,1612564888
556,Burkburnett,34.0979,-98.5706,287.59,18,1,5.66,US,1612564889
557,Illintsi,49.1048,29.2177,266.99,95,58,1.82,UA,1612564889
558,Daru,-9.0763,143.2092,301.14,74,100,6.17,PG,1612564644
559,Husavik,66.0449,-17.3389,272.15,69,20,2.06,IS,1612564889
560,Hacari,8.3233,-73.1489,293.75,85,100,1.74,CO,1612564889
561,Oum Hadjer,13.2954,19.6966,291.8,26,0,5.21,TD,1612564889
562,Hasaki,35.7333,140.8333,275.15,93,75,1.03,JP,1612564890
563,Manuk Mangkaw,4.8,119.85,299.97,79,100,3.81,PH,1612564890
564,Qostanay,53.1667,63.5833,275.15,93,0,7,KZ,1612564890
565,Myitkyina,25.3833,97.4,285.5,55,0,1.3,MM,1612564890
566,Vilhena,-12.7406,-60.1458,296.15,100,75,1.54,BR,1612564846
567,Dmitriyevka,54.75,55.3333,276.15,87,90,6,RU,1612564890
568,Naze,28.3667,129.4833,291.15,72,20,4.63,JP,1612564891
569,Bom Jesus,-9.0744,-44.3586,296.97,84,100,0.99,BR,1612564891
570,Nouadhibou,20.931,-17.0347,290.75,78,60,6.28,MR,1612564891
571,Gizo,-8.103,156.8419,302.1,73,22,4.94,SB,1612564891
572,Noumea,-22.2763,166.4572,300.93,78,40,1.03,NC,1612564890
573,Kerrville,30.0474,-99.1403,291.48,29,1,2.39,US,1612564855
574,Mahajanga,-15.7167,46.3167,300.15,89,40,2.06,MG,1612564891
575,Asau,46.4333,26.4,274.26,75,100,0.51,RO,1612564892
576,Petrykivka,48.7298,34.6351,267.15,73,75,6,UA,1612564892
577,Meulaboh,4.1363,96.1285,297.69,86,23,1.81,ID,1612564611
578,Elizabeth City,36.2946,-76.2511,282.59,93,90,5.14,US,1612564836
579,Mackay,-21.15,149.2,299.26,94,90,1.54,AU,1612564641
580,Muriwai Beach,-36.8167,174.45,297.04,63,98,1.34,NZ,1612564892
581,Ishimbay,53.4545,56.0415,274.74,93,100,5.75,RU,1612564892
582,Naberera,-4.2,36.9333,290.44,92,11,1.57,TZ,1612564892
583,Skjervoy,70.0311,20.9714,272.16,93,100,8.96,NO,1612564893
584,Ilo,-17.6394,-71.3375,293.93,80,80,0.72,PE,1612564893
585,Skalistyy,,,,,,,,
586,Mtsensk,53.2766,36.5733,257.94,94,96,4.16,RU,1612564866
587,Xiaoweizhai,26.1903,107.5125,282.54,85,86,0.23,CN,1612564893
588,Goundam,16.4145,-3.6708,299.11,16,100,3.39,ML,1612564893
589,Bucerias,20.75,-105.3333,297.15,73,1,4.12,MX,1612564894
590,Pleasanton,37.6624,-121.8747,292.15,30,1,1.54,US,1612564746
591,Jalu,29.0331,21.5482,284.68,63,0,0.79,LY,1612564894
592,Katherine,-14.4667,132.2667,297.15,94,90,2.06,AU,1612564894
593,Boddam,57.4667,-1.7833,274.26,100,90,7.2,GB,1612564894
594,Bobicesti,44.3833,24.15,280.37,93,10,2.06,RO,1612564894
595,Fort Nelson,58.8053,-122.7002,249.15,58,40,3.6,CA,1612564767
596,Paita,-5.0892,-81.1144,297.79,71,26,7.34,PE,1612564895
597,Arkhangelsk,64.5401,40.5433,255.15,71,40,3,RU,1612564895
598,Zhigansk,66.7697,123.3711,231.54,75,71,1.46,RU,1612564895
599,Jiddah,,,,,,,,
600,Fortuna,40.5982,-124.1573,286.48,71,1,7.2,US,1612564617
601,Poddorye,57.4695,31.1156,257.69,93,100,3.22,RU,1612564895
602,Karlshamn,56.1706,14.8619,263.71,92,20,5.14,SE,1612564895
603,Cockburn Town,21.4612,-71.1419,300.15,69,40,5.14,TC,1612564896
